Name,Url,Telephone,Longitude,Latitude,AddressRegion,AddressLocality,AddressCountry
Kinvara Visitor Information Point,,+353(0)91658108,-8.93591557246077,53.1388910775191,Galway,Kinvara,Republic of Ireland
Medieval Mile Museum,http://medievalmilemuseum.ie/,+353(0)861705934,-7.25209627969286,52.6517260001467,Kilkenny,Kilkenny City,Republic of Ireland
Carlow Food Trail,http://carlowtourism.com/,+353(0)599130411,-6.92805651824642,52.8362803317642,Carlow,Carlow Town,Republic of Ireland
SS Crete Boom – Ballina’s Concrete Ship,http://northmayo.ie/visit-ss-creteboom-concrete-ship-in-ballina/,+353(0)9670905,-9.15507203231098,54.1151859688673,Mayo,Ballina,Republic of Ireland
The Belfast Titanic Tour -  Finn McCools Tours,http://www.finnmccoolstours.com/,+353(0)18684101,-6.25907420862063,53.3465802160448,Dublin,Dublin City,Republic of Ireland
Inch Island,,,-7.4599475,55.054828,Donegal,Inch Island,Republic of Ireland
Cliffs of Moher - Finn McCools Tours,http://www.finnmccoolstours.com/,+353(0)18684101,-6.26026510942324,53.3509833070668,Dublin,Dublin City,Republic of Ireland
Macau Casino Club,http://www.macausportingclub.com,+353(0)14755377,-6.2656956,53.3411714,Dublin,Dublin City,Republic of Ireland
Hook & Ladder Cookery School,http://www.hookandladder.ie,+353(0)51850765,-7.11833710185237,52.2488080366063,Waterford,Waterford City,Republic of Ireland
Wicklow Brewery,http://www.wicklowbrewery.ie,+353(0)40441661,-6.14497101038136,52.8893580306763,Wicklow,Redcross,Republic of Ireland
Patrick Donald Photography Gallery,http://www.patrickdonald.com,+353(0)15389937,-6.25834430023644,53.3414059447069,Dublin,Dawson Street,Republic of Ireland
Bandon Visitor Information Point,,+353(0)238842861,-8.73557861343738,51.745692287695,Cork,Bandon,Republic of Ireland
Culdaff Beach,,,-7.1449971,55.291806,Donegal,Culdaff,Republic of Ireland
Beale Strand,,,-9.6312144,52.573972,Kerry,Ballybunion,Republic of Ireland
Pollan Bay,,,-7.3910308,55.290233,Donegal,Ballyliffin,Republic of Ireland
DoDublin Tours – Live German Tour,http://dodublin.ie/deutsche-busausflug-dublin,+353(0)17033215,-6.26102866999258,53.3504645513987,Dublin,Dublin City,Republic of Ireland
Glin Heritage Trails - Knight's Walk,,,-9.28570764449933,52.5702100309281,Limerick,Glin,Republic of Ireland
Alainn Tours,http://www.vacancesenirlande.com,+353(0)719150345,-8.49441129053582,54.276444346788,Sligo,Sligo Town,Republic of Ireland
Vanda Art Gallery,http://www.vandaluddy.com,+353(0)872855705,-9.0524112,53.2733757,Galway,Galway,Republic of Ireland
The Gallery Kinsale,http://thegallerykinsale.com,+353(0)868448589,-8.5230998,51.7050359,Cork,Kinsale,Republic of Ireland
White Strand Miltown Malbay Blue Flag Beach 2019,http://www.blueflagireland.org/,+353(0)656821616,-8.975776,52.849521,Clare,Milltown Malbay,Republic of Ireland
Caimileon Art Studio,http://www.caimileon.com,+353(0)91638876,-8.933924,53.165389,Galway,Ballinderreen,Republic of Ireland
National Kart & Adventure Centre Limerick,http://www.nationalkartcentre.ie,+353(0)61340161,-8.577525,52.684127,Limerick,Limerick City,Republic of Ireland
Creevagh Painting Holidays,,+353(0)872774376,-9.257909,54.22711,Mayo,Killala,Republic of Ireland
Carr Golf Travel,http://www.carrgolf.com,+353(0)18226662,-6.349643,53.387157,Dublin,Clonsilla,Republic of Ireland
Narosa Life,http://www.narosalife.com,8831090(0)86-8831090,-7.971912,55.183039,Donegal,Dunfanaghy,Republic of Ireland
Trek West,http://www.trekwesttours.ie,+353(0)9676586,-9.15049552667483,54.1145903639548,Mayo,Ballina,Republic of Ireland
West Cork Bike Hire,http://www.westcorkbikehire.com,+353(0)863088215,-9.552964,51.530941,Cork,Schull,Republic of Ireland
Bartons Transport,http://www.bartons.ie/,+353(0)16286338,-6.589851,53.368805,Kildare,Maynooth,Republic of Ireland
Deros Tours,http://www.derostours.com,+353(0)646631251,-9.508798,52.058222,Kerry,Killarney,Republic of Ireland
Red Mountain Open Farm,http://www.redmountainopenfarm.ie,+353(0)419823221,-6.44785637922252,53.6734790489153,Meath,Donore,Republic of Ireland
Ardfert Indoor Market,,+353(0)879209673,-9.782158,52.328152,Kerry,Ardfert,Republic of Ireland
Celtic Nature Walking Tours,http://www.celticnature.com,+353(0)877903950,-10.3175777499449,52.1429950992622,Kerry,Dingle,Republic of Ireland
GoEco Ireland,http://www.electricbikeholidays.ie,+353(0)61381427,-8.385225,52.60334,Limerick,Cappamore,Republic of Ireland
Grange Beach Green Coast Award for 2018,http://cleancoasts.org/wp-content/uploads/2015/02/Green-Coast-2015.pdf,,-6.84020270594022,52.1911459823255,Wexford,Fethard On Sea,Republic of Ireland
Baginbun Beach,,,-6.929462,52.123762,Wexford,Fethard On Sea,Republic of Ireland
Carnivan Beach,,,-6.83058966883084,52.1762003240587,Wexford,Fethard On Sea,Republic of Ireland
Irish White Water,http://www.irishwhitewater.com,,-9.04947254971209,53.2721788149031,Galway,Galway City,Republic of Ireland
Enchanted Ireland Tours,http://www.enchantedireland.com,+353(0)646671112,-9.471384,52.065385,Kerry,Killarney,Republic of Ireland
Barnageara Beach,,+353(0)18400077,-6.14835903591612,53.5866658407311,Dublin,Skerries,Republic of Ireland
Bull Island,http://www.dublin.ie,+353(0)18331859,-6.137493,53.374989,Dublin,Dublin City,Republic of Ireland
Clare Island,,+353(0)9826525,-10.0045082778525,53.8068838066043,Mayo,Clare Island,Republic of Ireland
Dunfanaghy Anglers Association Waters,,+353(0)749136218,-7.969928,55.183295,Donegal,Dunfanaghy,Republic of Ireland
Dungloe River,,+353(0)749521163,-8.37479834529767,54.94660888762,Donegal,Dungloe,Republic of Ireland
Minard Castle,,+353(0)669151188,-10.110453,52.126229,Kerry,Lispole,Republic of Ireland
Parkavonear Castle,,+353(0)646631633,-9.554942,52.075907,Kerry,Killarney,Republic of Ireland
Tarbert House,http://www.kerrytourism.tarbert.ie/things-to-do/visit-tarbert-house/,+353(0)6836198,-9.368959,52.579671,Kerry,Tarbert,Republic of Ireland
Castle Rheban,,+353(0)45521240,-7.025137,53.022126,Kildare,Athy,Republic of Ireland
English Language Centre - National University Of Ireland,http://www.nuigalway.ie/englishlanguage,+353(0)91495330,-9.060111,53.278255,Galway,Galway City,Republic of Ireland
Executive Language Training Ireland,http://www.elti.net,+353(0)238844730,-8.68797710742924,51.7105555302429,Cork,Bandon,Republic of Ireland
High Schools International,http://www.hsinet.org,+353(0)16784800,-6.243811,53.338496,Dublin,Dublin City,Republic of Ireland
Seal Rescue Centre,http://www.sealrescueireland.org,+353(0)539424980,-6.22938873865518,52.6448778383231,Wexford,Courtown,Republic of Ireland
Dingle Bay Ferries,,+353(0)669151640,-10.1767017079091,52.1322535640567,Kerry,Dingle,Republic of Ireland
Raven Nature Reserve,,+353(0)539120967,-6.375567,52.381664,Wexford,Curracloe,Republic of Ireland
Sathya Sai Sanctuary For Nature,http://www.donkeys.ie,+353(0)719611146,-8.406741,54.067111,Sligo,Castlebaldwin,Republic of Ireland
Angling Tullaghabegley River,,+353(0)749521297,-8.11048341269047,55.1261518056569,Donegal,Falcarragh,Republic of Ireland
Muckross Friary,http://www.heritageireland.ie/en/,+353(0)646670144,-9.504292,52.018083,Kerry,Killarney,Republic of Ireland
Dalkey Castle & Heritage Centre,http://www.dalkeycastle.com,+353(0)12858366,-6.105461,53.278024,Dublin,Dalkey,Republic of Ireland
Dublin Castle,http://www.dublincastle.ie,+353(0)16458813,-6.26741864418033,53.3428995946208,Dublin,Dublin City,Republic of Ireland
Dublin City Hall,http://www.dublincityhall.ie,+353(0)12222204,-6.26714916931155,53.3439224313735,Dublin,Dublin City,Republic of Ireland
Kissane Sheep Farm,http://www.adopt-a-sheep.ie,+353(0)646634791,-9.64712132882589,51.9444015592206,Kerry,Kenmare,Republic of Ireland
Blue Raincoat Theatre Company,http://www.blueraincoat.com,+353(0)719170431,-8.477832,54.273555,Sligo,Sligo Town,Republic of Ireland
Sliabh Liag (Slieve League) Cliffs,http://www.sliabhliag.com,+353(0)877850976,-8.68435488811155,54.6277622807034,Donegal,Carrick,Republic of Ireland
Four Masters Memorial,,+353(0)7321148,-8.109871,54.654093,Donegal,Donegal Town,Republic of Ireland
Killarney Racecourse,http://www.killarneyraces.ie,+353(0)646631125,-9.514396,52.048793,Kerry,Killarney,Republic of Ireland
Tramore Racecourse,http://www.tramore-racecourse.com/,+353(0)51381425,-7.14855437567143,52.172153136176,Waterford,Tramore,Republic of Ireland
Huntington Castle and Gardens,http://www.huntingtoncastle.com,+353(0)539377160,-6.64904962698369,52.6903979821351,Carlow,Clonegal,Republic of Ireland
Ballaghmore Castle,http://www.castleballaghmore.com,+353(0)50521453,-7.70710233995055,52.9598909579761,Laois,Borris In Ossory,Republic of Ireland
Charles Fort,http://www.heritageireland.ie/en/south-west/charlesfort/,+353(0)214772263,-8.499112,51.696908,Cork,Kinsale,Republic of Ireland
Cobh Heritage Centre – the Emigration & Maritime Story,http://www.cobhheritage.com,+353(0)214813591,-8.299372,51.848841,Cork,Cobh,Republic of Ireland
Cork City Gaol & Radio Museum Experience,http://www.corkcitygaol.com,+353(0)214305022,-8.49866321957392,51.8987629169569,Cork,Cork City,Republic of Ireland
Dingle Oceanworld Aquarium,http://www.dingle-oceanworld.ie,+353(0)669152111,-10.278434,52.139827,Kerry,Dingle,Republic of Ireland
Ionad an Bhlascaoid Mhóir - The Blasket Centre,http://www.gokerry.ie/blasket-centre/,+353(0)669156444,-10.462391,52.132379,Kerry,Tralee,Republic of Ireland
"Derrynane House, National Historic Park",http://www.derrynanehouse.ie/,+353(0)669475113,-10.110686,51.774546,Kerry,Caherdaniel ,Republic of Ireland
Ross Castle,http://www.heritageireland.ie/en/south-west/rosscastle/,+353(0)646635851,-9.521181,52.046673,Kerry,Killarney,Republic of Ireland
"Muckross House, Gardens & Traditional Farms",http://www.muckross-house.ie,+353(0)646670144,-9.504301,52.018077,Kerry,Killarney,Republic of Ireland
Thoor Ballylee,http://yeatsthoorballylee.org,+353(0)91631436,-8.77505020558828,53.1031531876228,Galway,Gort,Republic of Ireland
Turoe Pet Farm and Leisure Park,http://www.turoepetfarm.com,+353(0)91841580,-8.56178425950725,53.2528122596724,Galway,Bullaun,Republic of Ireland
Rinville Park,http://www.galway.ie/en/services/leisure/rinvilleparkoranmore/,+353(0)91509000,-9.048728,53.276473,Galway,Galway City.,Republic of Ireland
Altamont Gardens,http://www.heritageireland.ie/en/south-east/altamontgardens/,+353(0)599159444,-6.72083739021297,52.7357813084342,Carlow,Tullow,Republic of Ireland
Carlow County Museum,https://carlowcountymuseumblog.wordpress.com/,+353(0)599131554,-6.92818264687537,52.8363752803621,Carlow,College Street,Republic of Ireland
Dunmore Cave,http://www.heritageireland.ie/en/south-east/dunmorecave/,+353(0)567767726,-7.24692094177248,52.7339678688002,Kilkenny,Ballyfoyle,Republic of Ireland
Aran Islands - Inishmaan - Inis Árainn,,+353(0)9961263,-9.71924227867132,53.1371324489486,Galway,Inishmore - Árainn,Republic of Ireland
Jerpoint Abbey,http://www.heritageireland.ie/en/south-east/jerpointabbey/,+353(0)567724623,-7.15791450926212,52.5110785979225,Kilkenny,Thomastown,Republic of Ireland
Kilfane Glen and Waterfall,http://www.kilfane.com,+353(0)567724558,-7.08858084124756,52.5527459399813,Kilkenny,Thomastown,Republic of Ireland
Cashel Folk Village Museum,http://www.cashelfolkvillage.ie,+353(0)6263601,-7.888225,52.517543,Tipperary,Cashel,Republic of Ireland
Celtic Plantarum Dundrum,,+353(0)6271303,-8.04394293957041,52.5576255028435,Tipperary,Dundrum,Republic of Ireland
St Canice's Cathedral and Round Tower,http://www.stcanicescathedral.com,+353(0)567764971,-7.25721573743442,52.6566915104911,Kilkenny,Kilkenny City,Republic of Ireland
Cahir Castle,http://www.heritageireland.ie/en/south-east/cahircastle/,+353(0)527441011,-7.92701688095098,52.37454,Tipperary,Cahir,Republic of Ireland
Dan O’Hara’s Homestead  - Connemara Heritage & History Centre,http://www.connemaraheritage.com,+353(0)9521246,-9.911671,53.479881,Galway,Clifden,Republic of Ireland
Connemara National Park,http://www.connemaranationalpark.ie,+353(0)9541054,-9.944771,53.551335,Galway,Letterfrack,Republic of Ireland
Kylemore Abbey and Victorian Walled Garden,http://www.kylemoreabbey.com,+353(0)9552001,-9.889351,53.561632,Galway,Connemara,Republic of Ireland
Swiss Cottage,http://www.heritageireland.ie/en/south-east/cahircastle/,+353(0)527441144,-7.92353232638925,52.3573056381199,Tipperary,Cahir,Republic of Ireland
Westport House & Grounds,http://www.westporthouse.ie,+353(0)9827766,-9.540006,53.805648,Mayo,Westport,Republic of Ireland
Ballintubber Abbey and The Celtic Furrow,http://www.ballintubberabbey.ie,+353(0)949030934,-9.282828,53.756654,Mayo,Ballintubber,Republic of Ireland
Ballyhack Castle,http://www.heritageireland.ie/en/south-east/ballyhackcastle/,+353(0)51389468,-6.967399,52.24592,Wexford,Ballyhack,Republic of Ireland
Duncannon Fort Tour,http://www.duncannonfort.ie,+353(0)51389530,-6.936401,52.221133,Wexford,Hook Peninsula,Republic of Ireland
Glendeer Open Pet Farm,http://www.glendeerpetfarm.ie,+353(0)906437147,-8.020255,53.397686,Westmeath,Athlone,Republic of Ireland
Irish Agricultural Museum at Johnstown Castle,http://www.irishagrimuseum.ie,+353(0)539184671,-6.50381827116393,52.2922454262557,Wexford,Murntown,Republic of Ireland
The John F. Kennedy Memorial Park,http://www.heritageireland.ie/en/south-east/thejohnfkennedyarboretum/,+353(0)51388171,-6.93342172485347,52.3210174954784,Wexford,New Ross,Republic of Ireland
Doctor Douglas Hyde Interpretive Centre,http://www.roscommoncoco.ie/en/Services/Tourism/Recreation/Douglas_Hyde_Centre/,+353(0)877823751,-8.45164623809819,53.8818392904826,Roscommon,Frenchpark,Republic of Ireland
Carlingford Heritage Centre,http://www.carlingfordheritagecentre.com,+353(0)429373454,-6.18566354232791,54.0391568860987,Louth,Carlingford,Republic of Ireland
Drogheda Museum Millmount,http://www.millmount.net,+353(0)419833097,-6.35025503802876,53.7117853993422,Louth,Drogheda,Republic of Ireland
Donegal County Museum,http://www.facebook.com/Donegalcomuseum/,+353(0)749124613,-7.735013,54.954561,Donegal,Letterkenny,Republic of Ireland
Glencolmcille Folk Village,http://www.glenfolkvillage.com,+353(0)749730017,-8.740572,54.707193,Donegal,Glencolmcille,Republic of Ireland
Fort Dunree Military Museum,http://www.dunree.pro.ie,+353(0)749361817,-7.554006,55.196372,Donegal,Inishowen,Republic of Ireland
Fore Abbey,,+353(0)449661780,-7.21796591528323,53.6752802640906,Westmeath,Fore,Republic of Ireland
Tullynally Castle Gardens,http://www.tullynallycastle.com,+353(0)449661856,-7.32672759259037,53.6832182982051,Westmeath,Castlepollard,Republic of Ireland
Lifford Old Courthouse,http://www.liffordoldcourthouse.com,+353(0)749141733,-7.47863570027107,54.8332281945284,Donegal,Lifford,Republic of Ireland
Mount Usher Gardens,http://www.mountushergardens.ie,+353(0)40440205,-6.10677191491913,53.0090439184929,Wicklow,Ashford,Republic of Ireland
The National Garden Exhibition Centre - Arboretum Kilquade,http://www.arboretum.ie/Arboretum-KIlquade-1020,+353(0)15313488,-6.089633,53.112697,Wicklow,Kilquade,Republic of Ireland
Russborough House  and Parklands,http://russboroughhouse.ie/,+353(0)45865239,-6.56945930422966,53.1416347499787,Wicklow,Blessington,Republic of Ireland
The Workhouse Famine & Heritage Centre,http://www.dunfanaghyworkhouse.ie/,+353(0)749136540,-7.97699344047543,55.1798775143,Donegal,Dunfanaghy,Republic of Ireland
Glebe House and Gallery,http://www.heritageireland.ie/en/north-west/glebehouseandgallery/,+353(0)749137071,-7.687697,54.959735,Donegal,Letterkenny,Republic of Ireland
The Irish National Stud,http://www.irishnationalstud.ie,+353(0)45521617,-6.90149571163942,53.1447107024539,Kildare,Kildare Town,Republic of Ireland
Newmills Corn And Flax Mills,http://www.heritageireland.ie/en/north-west/newmillscornandflaxmills/,+353(0)749125115,-7.808241,54.929074,Donegal,Letterkenny,Republic of Ireland
Sligo Abbey,http://www.heritageireland.ie/en/north-west/sligoabbey/,+353(0)719146406,-8.470736,54.270803,Sligo,Sligo Town,Republic of Ireland
Hyde Bridge Gallery,http://www.yeats-sligo.com/Home,+353(0)719142693,-8.474933,54.272077,Sligo,Sligo Town,Republic of Ireland
Woodville Farm,http://www.facebook.com/woodvillefarm/,+353(0)719162741,-8.51384,54.268695,Sligo,Strandhill,Republic of Ireland
Cavan County Museum,http://www.cavanmuseum.ie,+353(0)498544070,-7.200883,53.866898,Cavan,Ballyjamesduff,Republic of Ireland
Johnstown Castle Estate,http://www.johnstowncastle.ie,+353(0)539184671,-6.504702,52.294018,Wexford,Johnstown,Republic of Ireland
Killruddery House Gardens,http://www.killruddery.com,+353(0)12863405,-6.10225923809821,53.1820324912354,Wicklow,Bray,Republic of Ireland
Bantry House and Garden,http://www.bantryhouse.com,+353(0)2750047,-9.465435,51.677161,Cork,Bantry,Republic of Ireland
Coolcarrigan House,http://www.coolcarrigan.ie,+353(0)45863527,-6.85131906878655,53.3190840383504,Kildare,Naas,Republic of Ireland
Avondale House and Forest Park,http://www.heritageisland.com/attractions/avondale-house-forest-park/,+353(0)40446111,-6.22674316140751,52.9164623564582,Wicklow,Rathdrum,Republic of Ireland
Corlea Trackway Visitor Centre,http://www.heritageireland.ie/en/midlands-eastcoast/corleatrackwayvisitorcentre/,+353(0)433322386,-7.84544131779102,53.6125265096806,Longford,Kenagh,Republic of Ireland
Glendalough Monastic Site and Visitor Centre,http://www.heritageireland.ie/en/midlands-eastcoast/glendaloughvisitorcentre/,+353(0)40445352,-6.32426458035661,53.0105997867961,Wicklow,Glendalough,Republic of Ireland
North Mayo Heritage Centre and Enniscoe Gardens,http://www.enniscoe.com,+353(0)9631809,-9.311125,54.070543,Mayo,Ballina,Republic of Ireland
Monaghan County Museum,http://monaghan.ie/museum/,+353(0)4782928,-6.972623,54.247826,Monaghan,Monaghan Town,Republic of Ireland
The Gallery,,+353(0)749136224,-7.968478,55.183303,Donegal,Dunfanaghy,Republic of Ireland
Curraghmore House,http://www.curraghmorehouse.ie,+353(0)868211917,-7.3593387202377,52.2903792166373,Waterford,Portlaw,Republic of Ireland
Larchill Gardens,http://www.larchill.ie,+353(0)16287354,-6.65881839286805,53.441276236096,Kildare,Kilcock,Republic of Ireland
Michael Gibbons Walking Ireland,http://www.walkingireland.com,+353(0)9521379,-10.021,53.4878,Galway,Clifden,Republic of Ireland
Emo Court House,http://www.heritageireland.ie/en/midlands-eastcoast/emocourt/,+353(0)578626573,-7.19697776455689,53.1071358967639,Laois,Emo,Republic of Ireland
Donegal Castle,http://www.heritageireland.ie/en/north-west/donegalcastle/,+353(0)749722405,-8.11090678042603,54.6544036482745,Donegal,Donegal Town,Republic of Ireland
Tintern Abbey,http://www.heritageireland.ie/en/south-east/tinternabbey/,+353(0)51562650,-6.837961,52.236925,Wexford,New Ross,Republic of Ireland
ACET - Cork Language Centre International,http://acetireland.ie/,+353(0)214551661,-8.467479,51.902273,Cork,Cork City,Republic of Ireland
WELC  -Waterford English Language Centre,http://www.welc.ie,+353(0)51877288,-7.10324884124759,52.251910117235,Waterford,Waterford City,Republic of Ireland
Donegal English Language School,http://www.donegallanguageschool.com,+353(0)719841288,-8.299591,54.47651,Donegal,Bundoran,Republic of Ireland
Bridge Mills Galway Language Centre,http://www.galwaylanguage.com,+353(0)91566468,-9.056524,53.271422,Galway,Galway City,Republic of Ireland
Ionad Cois Locha,http://www.dunleweycentre.com,+353(0)749531699,-8.14289368955155,55.0272798928525,Donegal,Gweedore,Republic of Ireland
Croagh Patrick,http://www.croagh-patrick.com,+353(0)9864114,-9.62933314077529,53.7780695501916,Mayo,Westport,Republic of Ireland
Ards Forest Park,http://www.coillte.ie/site/ards-forest-park/,+353(0)749121139,-7.92107508117022,55.1782179631857,Donegal,Creeslough,Republic of Ireland
Kiltartan Gregory Museum,http://www.gortonline.com/gregorymuseum/,+353(0)91632346,-8.815409,53.099346,Galway,Gort,Republic of Ireland
Town Hall Theatre,http://tht.ie/,+353(0)91569777,-9.054129,53.276094,Galway,Galway City,Republic of Ireland
"The Quiet Man Museum, Tours & Giftshop",http://www.quietmanmuseum.com,+353(0)949546089,-9.288031,53.540846,Mayo,Cong,Republic of Ireland
Knock Shrine,http://www.knock-shrine.ie,+353(0)949388100,-8.91863360321042,53.792642494532,Mayo,Knock,Republic of Ireland
Hazelwood Sculpture Trail Sligo,,,-8.47515,54.2678,Sligo,Sligo Town,Republic of Ireland
Knock Museum,http://www.knock-shrine.ie/,+353(0)949375034,-8.91713850793462,53.792237375033,Mayo,Knock,Republic of Ireland
Colmcille Heritage Centre,http://www.colmcilleheritagecentre.ie/,+353(0)749137306,-7.903567,54.993456,Donegal,Letterkenny,Republic of Ireland
Historic Stroll in Old Kinsale,http://www.historicstrollkinsale.com,+353(0)214772873,-8.52057639741845,51.7026432298443,Cork,Kinsale,Republic of Ireland
Parnell National Memorial Park,http://www.heritageisland.com/attractions/avondale-house-forest-park/,,-6.24547966889964,52.9214511781452,Wicklow,Rathdrum,Republic of Ireland
Corrib Cruises & Corrib Ferries,http://corribcruises.com,+353(0)872830799,-9.28161238141853,53.5385265721061,Mayo,Cong,Republic of Ireland
Arklow Maritime Museum,http://www.arklowmaritimeheritage.ie/,+353(0)864460784,-6.146723,52.799369,Wicklow,Arklow,Republic of Ireland
Glenroe Open Farm,http://www.glenroefarm.ie/,+353(0)12872288,-6.07495456155648,53.09827392643,Wicklow,Kilcoole,Republic of Ireland
Beaulieu House and Gardens,http://beaulieuhouse.ie/,+353(0)419838557,-6.29357936441806,53.7282193367458,Louth,Drogheda,Republic of Ireland
Victor's Way,http://victorsway.eu,+353(0)12818505,-6.219773,53.08605,Wicklow,Roundwood,Republic of Ireland
Michael J Quill Centre,,+353(0)646685511,-9.46143,51.902656,Kerry,Kilgarvan,Republic of Ireland
Donegal Railway Heritage Centre,http://www.countydonegalrailway.com,+353(0)749722655,-8.107782,54.657036,Donegal,Donegal Town,Republic of Ireland
Powerscourt Waterfall,http://powerscourt.com/waterfall,+353(0)12046000,-6.20982599487308,53.1461205406341,Wicklow,Enniskerry,Republic of Ireland
"Taylor's Art Gallery, Picture Framing & Music Centre",http://taylorsartgallery.ie,+353(0)719165138,-8.41270916665644,54.1067377216894,Sligo,Castlebaldwin,Republic of Ireland
Garter Lane Art Gallery,http://www.garterlane.ie,+353(0)51855038,-7.116447,52.262574,Waterford,Waterford City,Republic of Ireland
Waterford County Museum,http://www.waterfordmuseum.ie,+353(0)5845960,-7.61940048710243,52.0886397984962,Waterford,Dungarvan,Republic of Ireland
Museum of Transport,,+353(0)526129727,-7.671449,52.361704,Tipperary,Clonmel,Republic of Ireland
Sean Kelly Sports Centre,http://www.seankellysportscentre.com/,+353(0)51640955,-7.39384192694615,52.3508384286415,Tipperary,Carrick-on-Suir,Republic of Ireland
Carlow Castle,http://carlowtourism.com/carlow-castle-2/,,-6.93592669444274,52.8362654749417,Carlow,Carlow Town,Republic of Ireland
Toy Soldier Factory & Visitor Centre,http://toysoldierfactory.ie,+353(0)2640342,-9.082397,51.900686,Cork,Macroom,Republic of Ireland
Druid Theatre,http://www.druid.ie,+353(0)91568660,-9.053516,53.271049,Galway,Galway City,Republic of Ireland
Gillighan's World - The Field of Dreams,http://www.gillighansworld.ie,+353(0)719130286,-8.67993,54.126333,Sligo,Tubbercurry,Republic of Ireland
Kilgarvan Motor Museum,http://www.kilgarvanmotormuseum.com,+353(0)646685346,-9.434234,51.88772,Kerry,Kilgarvan,Republic of Ireland
Curracloe Blue Flag Beach 2019,http://beachawards.ie/blue-flag/,+353(0)539142211,-6.36730961168245,52.394694331686,Wexford,Curracloe,Republic of Ireland
Nolans Castle,,+353(0)719161201,-9.085891,54.216222,Sligo,Enniscrone,Republic of Ireland
Mayo Leisure Point,http://www.mayoleisurepoint.ie,+353(0)949025473,-9.286144,53.856736,Mayo,Castlebar,Republic of Ireland
Titanic Trail,http://www.titanic.ie,+353(0)214815211,-8.30293076096362,51.8517689943711,Cork,Cobh,Republic of Ireland
Lismore Castle,http://www.lismorecastle.com,+353(0)5854424,-7.93398327514648,52.1404259120228,Waterford,Lismore,Republic of Ireland
Waterford Marina,http://www.waterfordcouncil.ie/departments/roads-parking/marinas.htm,+353(0)872384944,-7.106558,52.259892,Waterford,Waterford City,Republic of Ireland
Tipperary Excel Centre,http://www.tipperary-excel.com,+353(0)6280520,-8.160257,52.475099,Tipperary,Tipperary Town,Republic of Ireland
Sean Treacy Memorial Swimming Pool,,+353(0)6251806,-8.157173,52.474918,Tipperary,Tipperary Town,Republic of Ireland
Greyfriars Municipal Art Gallery,http://waterfordarts.com/2013/03/16/greyfriars-municipal-art-gallery/,+353(0)51849857,-7.106855,52.260599,Waterford,Waterford City,Republic of Ireland
Kilclooney Dolmen,,+353(0)749721148,-8.43687,54.822714,Donegal,Ardara    ,Republic of Ireland
Black Castle,http://carlowtourism.com/black-castle-2/,,-6.9776,52.736059,Carlow,Leighlinbridge,Republic of Ireland
Nore Valley Park Open Farm,http://www.norevalleypark.com/pet-farm/,+353(0)567727229,-7.21387818095468,52.5461046218195,Kilkenny,Bennettsbridge,Republic of Ireland
Pollardstown Fen,http://www.npws.ie/nature-reserves/kildare/pollardstown-fen-nature-reserve,+353(0)45521713,-6.84568203514686,53.183601640081,Kildare,Newbridge,Republic of Ireland
Stephenstown Pond Nature Park & The Dairy Maid Coffee Shop,http://stephenstownpond.com/,+353(0)429379019,-6.458187,53.96425,Louth,Dundalk,Republic of Ireland
Sligo County Museum,,+353(0)719111679,-8.472935,54.272763,Sligo,Sligo,Republic of Ireland
Yeats Society,http://www.yeats-sligo.com,+353(0)719142693,-8.474933,54.272077,Sligo,Sligo Town,Republic of Ireland
Murvagh Blue Flag Beach 2019,,+353(0)749721148,-8.16697026754911,54.616838978425,Donegal,Murvagh,Republic of Ireland
Rossnowlagh Blue Flag Beach 2019,,+353(0)719841350,-8.2071552168644,54.5572408597276,Donegal,Rossnowlagh  ,Republic of Ireland
Adrigole Arts,http://www.hungryhillgallery.com,+353(0)2760234,-9.710114,51.684406,Cork,Adrigole,Republic of Ireland
Cork English College International Language & Activity Holidays,http://www.corkenglishcollege.ie,+353(0)214551522,-8.466683,51.900773,Cork,Cork City,Republic of Ireland
Blasket Island Ferry,http://www.blasketisland.com,+353(0)669156422,-10.4558122416662,52.1330832726897,Kerry,Dunquin,Republic of Ireland
Céide Fields Visitor Centre & Site,http://www.heritageireland.ie/en/west/ceidefields/,+353(0)9643325,-9.457629,54.3071,Mayo,Ballycastle,Republic of Ireland
Glengarriff Bamboo Park,http://www.bamboo-park.com,+353(0)2763007,-9.54973322978185,51.7503379182736,Cork,Glengarriff,Republic of Ireland
Mullingar Arts Centre,http://www.mullingarartscentre.ie,+353(0)449347777,-7.340438,53.523786,Westmeath,Mullingar,Republic of Ireland
Michael Collins Centre,http://www.michaelcollinscentre.com,+353(0)238846107,-8.82146281279995,51.6431137479645,Cork,Clonakilty,Republic of Ireland
The Slaney Language Centre,http://www.slaneylanguage.com,+353(0)539120881,-6.532653,52.344944,Wexford,Wexford Town,Republic of Ireland
Christ Church Cathedral,http://www.christchurchwaterford.com,+353(0)51858958,-7.10754816931148,52.2598624646831,Waterford,Waterford City,Republic of Ireland
The Kennedy Homestead,http://www.kennedyhomestead.ie,+353(0)51388264,-6.9802127705002,52.3458284738069,Wexford,New Ross,Republic of Ireland
Abbey Road Gardens,http://www.waterfordgardentrail.com/gardens/abbeyroadgardens/,+353(0)51851111,-7.102184,52.264196,Waterford,Waterford City,Republic of Ireland
Lafcadio Hearn Japanese Gardens,http://www.lafcadiohearngardens.com,+353(0)870960013,-7.15002274603273,52.1634696580684,Waterford,Tramore,Republic of Ireland
Dungarvan Castle,http://www.heritageireland.ie/en/south-east/dungarvancastle/,+353(0)5848144,-7.6161511054878,52.0892648611029,Waterford,Dungarvan,Republic of Ireland
Rathvilly Motte,http://www.megalithomania.com,,-6.678403,52.880339,Carlow,Liberty Tree,Republic of Ireland
Shannon Erne Waterway Ballinamore,,+353(0)719644855,-7.80492195494903,54.0528906063186,Leitrim,Ballinamore,Republic of Ireland
Clonmel Racecourse,http://www.clonmelraces.ie,+353(0)526188508,-7.68072,52.364352,Tipperary,Clonmel,Republic of Ireland
Tipperary Racecourse,http://www.tipperaryraces.ie,+353(0)6251357,-8.208061,52.50038,Tipperary,Limerick Junction,Republic of Ireland
Wexford Racecourse,http://www.wexfordraces.ie,+353(0)539142307,-6.490035,52.341815,Wexford,Wexford Town,Republic of Ireland
Jameson Distillery Midleton,http://www.jamesonwhiskey.com,+353(0)214613594,-8.16855455588915,51.9135845078898,Cork,Midleton,Republic of Ireland
Desmond Castle  Wine Museum,http://www.heritageireland.ie/en/south-west/desmondcastle/,+353(0)214774855,-8.524855,51.706922,Cork,Kinsale,Republic of Ireland
Old Mellifont Abbey,http://www.heritageireland.ie/en/midlands-eastcoast/oldmellifontabbey/,+353(0)419826459,-6.46595950926212,53.7426635128435,Louth,Drogheda,Republic of Ireland
Galway Atlantaquaria,http://www.nationalaquarium.ie/,+353(0)91585100,-9.074008,53.259919,Galway,Salthill,Republic of Ireland
Lally Coach Hire Ltd,http://www.lallytours.com,+353(0)91562905,-9.048882,53.273232,Galway,Galway City,Republic of Ireland
Leisureland,http://www.leisureland.ie,+353(0)91521455,-9.08248399999999,53.258984,Galway,Salthill,Republic of Ireland
Suck Valley Visitor Conference Centre and Riverside Café,http://www.discoversuckvalleyway.ie/visitor-centre.php,+353(0)830698795,-8.260814,53.569999,Roscommon,Athleague,Republic of Ireland
Glengowla Mines,http://www.glengowlamines.ie,+353(0)91552021,-9.374364,53.418112,Galway,Oughterard,Republic of Ireland
Budget Car Rental,http://www.budget.ie,+353(0)906627711,-6.244319,53.427171,Dublin,Dublin Airport,Republic of Ireland
Corrib Tours on the Corrib Princess,http://www.corribprincess.ie/,+353(0)91563846,-9.052401,53.276239,Galway,Galway City,Republic of Ireland
Citylink Travel Services,http://www.citylink.ie,+353(0)91564163,-9.041945,53.269708,Galway,Galway City,Republic of Ireland
Westport Leisure Park,http://www.westportleisure.com,+353(0)9829160,-9.525624,53.800232,Mayo,Westport,Republic of Ireland
Cloondavaun Bay Marina,,+353(0)909749227,-8.31531431793711,53.0681279373929,Galway,Portumna,Republic of Ireland
Galway Cultural Institute,http://www.gci.ie,+353(0)91863100,-9.071435,53.262935,Galway,Salthill,Republic of Ireland
Punchestown Racecourse,http://www.punchestown.com,+353(0)45897704,-6.62747570898432,53.1843171280392,Kildare,Punchestown,Republic of Ireland
Naas Racecourse,http://www.naasracecourse.com,+353(0)45897391,-6.64819627249141,53.2194067656032,Kildare,Naas,Republic of Ireland
Ormond Castle,http://www.heritageireland.ie/en/south-east/ormondcastle/,+353(0)51640787,-7.40706209521488,52.3453260632141,Tipperary,Carrick On Suir,Republic of Ireland
Carrick-On-Suir Visitor Information Point,,+353(0)51640200,-7.41340476322943,52.3465927703523,Tipperary,Carrick-on-Suir,Republic of Ireland
Tipperary County Museum,http://www.tipperarycoco.ie/museum,+353(0)526134550,-7.698741,52.355541,Tipperary,Clonmel,Republic of Ireland
Dunbrody Famine Ship Experience,http://www.dunbrody.com/visitor-info/irish-emigrant-experience/,+353(0)51425239,-6.94780696560667,52.3936317902039,Wexford,New Ross ,Republic of Ireland
Hook Lighthouse & Visitor Centre,http://hookheritage.ie/,+353(0)51397054,-6.929438,52.123757,Wexford,New Ross,Republic of Ireland
Ferns Castle,http://www.heritageireland.ie/en/south-east/fernscastle/,+353(0)539366411,-6.49952438888544,52.590701575237,Wexford,Ferns Village,Republic of Ireland
The Causey Farm,http://www.causey.ie,+353(0)469434135,-6.921112,53.666175,Meath,Navan,Republic of Ireland
St. Mel's Cathedral,http://longfordparish.com/,+353(0)433346465,-7.796213068626,53.7268394603812,Longford,Longford Town,Republic of Ireland
Greenan Maze,http://www.greenanmaze.com,+353(0)40446000,-6.305334,52.91459,Wicklow,Rathdrum,Republic of Ireland
Crag Cave,http://www.cragcave.com,+353(0)667141244,-9.444364,52.247082,Kerry,Castleisland,Republic of Ireland
Slea Head Famine Cottages and Sheep Dog Trials,http://www.famine-cottage.com,+353(0)669156241,-10.412162,52.10539,Kerry,Dingle,Republic of Ireland
Kilkenny Castle Parkland,http://www.heritageireland.ie/en/south-east/kilkennycastle/,+353(0)876349153,-7.249375,52.650426,Kilkenny,Kilkenny City,Republic of Ireland
The Watergarden Garden Centre,http://www.camphill.ie/Thomastown,+353(0)567724690,-7.139893,52.526743,Kilkenny,Thomastown,Republic of Ireland
Kingdom Greyhound Racing Stadium,http://www.kingdomgreyhoundstadium.ie,+353(0)61448080,-9.70056387962336,52.2745145872968,Kerry,Tralee,Republic of Ireland
The Donkey Sanctuary,http://www.thedonkeysanctuary.ie/visit-and-fall-in-love,+353(0)2248398,-8.79422099942303,52.2649923015278,Cork,Mallow,Republic of Ireland
Woodstock Gardens and Arboretum,http://www.woodstock.ie,+353(0)878549785,-7.06027586375421,52.4751051326706,Kilkenny,Inistioge,Republic of Ireland
Bahana Forest,http://www.coillteoutdoors.ie/,,-6.92162977783209,52.5076031689915,Carlow,St. Mullins,Republic of Ireland
Marl Bog,http://www.coillteoutdoors.ie/index.php?id=173&rec_site=160&trail=294,+353(0)61337322,-8.05861954314286,52.5503709500934,Tipperary,Dundrum,Republic of Ireland
Carey's Castle,http://www.coillte.ie,,-7.70723566061687,52.3584131841366,Tipperary,Clonmel,Republic of Ireland
Carrickbyrne Hill,http://www.coillteoutdoors.ie/sites-and-trails/recreation-site-and-trails-search/?no_cache=1,,-6.77791896150245,52.3649871443024,Wexford,New Ross,Republic of Ireland
Dunamore Woods,http://www.coillteoutdoors.ie/,,-6.56890355735458,52.4428316603089,Wexford,Enniscorthy,Republic of Ireland
Comeragh Mountains- Muddy Boots,,+353(0)51875823,-7.72536667903788,52.2692650952256,Waterford,Lemybrien,Republic of Ireland
Malahide Castle and Howth Tour - DoDublin,http://dodublin.ie,+353(0)17033028,-6.261029,53.350462,Dublin,Dublin City,Republic of Ireland
Gleninchaquin Park,http://www.gleninchaquin.com,+353(0)877128553,-9.66063839246464,51.8019888784367,Kerry,Kenmare,Republic of Ireland
Anam Cré Studio,http://www.kenmare-pottery.com,+353(0)646641849,-9.58533722661574,51.8822093806298,Kerry,Kenmare,Republic of Ireland
Mardyke Entertainment Complex,http://www.mardyke.com,+353(0)214273000,-8.481096,51.898107,Cork,Cork City,Republic of Ireland
Bere Island Ferries,http://www.bereislandferries.com,+353(0)2775009,-9.897609,51.636061,Cork,Castletownbere,Republic of Ireland
Cross River Ferries Ltd.,http://crossriverferries.ie/getting-cross-river-ferries/,+353(0)214811223,-8.321949,51.848299,Cork,Cobh,Republic of Ireland
Murphy's Ferry Service,http://www.murphysferry.com,+353(0)2775014,-9.818661,51.636259,Cork,Bere Island,Republic of Ireland
Saint Mary's Church,http://www.heritageireland.ie/en/south-east/stmaryschurchgowrancokilkenny/,+353(0)567767726,-7.064717,52.6289,Kilkenny,Gowran,Republic of Ireland
Barry's Coaches Ltd.,http://www.barryscoaches.com,+353(0)214505390,-8.465772,51.91024,Cork,Cork City,Republic of Ireland
Kerry Airport PLC,http://www.kerryairport.ie,+353(0)669764644,-9.51822508648521,52.1834315147506,Kerry,Farranfore,Republic of Ireland
Great Island Car Rentals,http://www.greatislandcarrentals.com,+353(0)214811609,-8.319403,51.847901,Cork,Cobh,Republic of Ireland
Dan & Donal McCrohan Boat Operators,http://Skelligboat.com,+353(0)872399741,-10.3509022757664,51.9093641120594,Kerry,Valentia Island,Republic of Ireland
Kennedy's All-Weather Pet Farm & Playgrounds,http://www.killarneypetfarm.com,+353(0)647754054,-9.39194785395261,52.0296343406267,Kerry,Killarney,Republic of Ireland
The Cork City Tour,http://www.corkcitytours.com/,+353(0)214309090,-8.471041,51.899375,Cork,Cork City,Republic of Ireland
Killarney Guided Walks,http://www.killarneyguidedwalks.com,+353(0)876394362,-9.51816339203602,52.0585516879163,Kerry,Killarney,Republic of Ireland
PG Tourism Services,http://www.pgtourism.com,+353(0)646631101,-9.513409,52.052248,Kerry,Killarney,Republic of Ireland
"Siamsa Tíre, The National Folk Theatre & Arts Centre",http://www.siamsatire.com,+353(0)667123055,-9.70834716071317,52.2664535275707,Kerry,Tralee,Republic of Ireland
Kilkenny Airport,http://www.kilkennyairport.ie,,-7.29839052099702,52.6504498237095,Kilkenny,Kilkenny City,Republic of Ireland
JJ Kavanagh Coach Hire Service,http://www.jjkavanagh.ie,+353(0)568831106,-7.578598,52.722655,Kilkenny,Urlingford,Republic of Ireland
Abbeyleix Heritage House,http://www.abbeyleixheritage.com,+353(0)578731653,-7.34637393254092,52.9173877779371,Laois,Abbeyleix,Republic of Ireland
An Grianan Adult Education College,http://www.ica.ie/An-Grian%C3%A1n.6.1.aspx,+353(0)419822119,-6.264549,53.754937,Louth,Termonfeckin,Republic of Ireland
Maudabawn Cultural Centre,,+353(0)495559504,-7.02288,54.030531,Cavan,Cootehill,Republic of Ireland
The Organic Centre,http://www.theorganiccentre.ie,+353(0)719854338,-8.11951,54.392409,Leitrim,Rossinver,Republic of Ireland
Inishowen Maritime Museum & New Full Dome Planetarium,http://www.inishowenmaritime.com,+353(0)749381363,-6.986171,55.203097,Donegal,Inishowen,Republic of Ireland
Rosses Anglers Association,http://www.fishinginireland.info/salmon/north/rosses.htm,+353(0)749521163,-8.36099307110566,54.9508787377348,Donegal,Dungloe,Republic of Ireland
Leixlip Castle,http://intokildare.ie/listing/leixlip-castle/,+353(0)16244430,-6.48737007801821,53.3645021255719,Kildare,Leixlip,Republic of Ireland
Scenic Passage East Ferry,http://www.passageferry.ie,+353(0)51382480,-6.97282523677063,52.2402467039509,Waterford,Passage East,Republic of Ireland
Small Escorted Tours of Ireland,http://www.irelandescorted.com,+353(0)567727322,-7.23658248250964,52.5825362078813,Kilkenny,Kilkenny City,Republic of Ireland
Knockabbey Castle & Gardens,http://www.knockabbeycastle.com,+353(0)16778816,-6.584483,53.930599,Louth,Louth,Republic of Ireland
Splashworld,http://www.splashworld.ie,+353(0)51390176,-7.14722,52.161851,Waterford,Tramore,Republic of Ireland
Hawk's Well Theatre,http://www.hawkswell.com,+353(0)719161518/9161526,-8.477043,54.268771,Sligo,Sligo Town,Republic of Ireland
Bundoran Waterworld,http://www.waterworldbundoran.com,+353(0)719841172,-8.279783,54.480178,Donegal,Bundoran,Republic of Ireland
Dwyer McAllister Cottage,http://www.heritageireland.ie/en/midlands-eastcoast/dwyermcallistercottage/,+353(0)40445325,-6.56500393254089,52.9619284624672,Wicklow,Knockanarrigan,Republic of Ireland
Sligo Folk Park,http://www.sligofolkpark.com,+353(0)719165001,-8.399321,54.129294,Sligo,Riverstown,Republic of Ireland
Hill of Tara,http://www.heritageireland.ie/en/midlands-eastcoast/hilloftara/,+353(0)469025903,-6.61156,53.578705,Meath,Tara,Republic of Ireland
Trim Castle,http://www.heritageireland.ie/en/midlands-eastcoast/trimcastle/,+353(0)469438619,-6.790364,53.554732,Meath,Trim,Republic of Ireland
Wicklow Mountains National Park,http://www.wicklowmountainsnationalpark.ie,+353(0)40445425,-6.36146697502009,53.0037170213412,Wicklow,Glendalough,Republic of Ireland
Sligo Racecourse,http://www.countysligoraces.com,+353(0)719183342,-8.45714928039547,54.2627673683743,Sligo,Sligo Town,Republic of Ireland
Bundoran Beach,,+353(0)719841350,-8.27960825676268,54.4782437120576,Donegal,Bundoran,Republic of Ireland
Culdaff Blue Flag Beach 2019,,,-7.1509567484145,55.293409908708,Donegal,Inishowen,Republic of Ireland
Lisfannon,http://visitinishowen.com,+353(0)749362600,-7.48165280946466,55.0963841510373,Donegal,Inishowen,Republic of Ireland
Shroove Blue Flag Beach 2019,http://www.govisitinishowen.com,+353(0)749363451,-6.92729529415953,55.2283314206515,Donegal,Inishowen,Republic of Ireland
Magherawarden - Portsalon Blue Flag Beach 2019,,,-7.6240770577076,55.2056044750489,Donegal,Portsalon,Republic of Ireland
Killahoey Blue Flag Beach 2019,,,-7.95897496800923,55.1790540703975,Donegal,Dunfanaghy,Republic of Ireland
Portnoo-Naran Blue Flag Beach 2019,,+353(0)749721148,-8.44666659188851,54.8389686154753,Donegal,Narin/Portnoo,Republic of Ireland
Fintra Blue Flag Beach 2019,,+353(0)749721148,-8.48465656616213,54.6347764563094,Donegal,Killybegs,Republic of Ireland
The Dolmen Centre,,+353(0)749545010,-8.436855,54.822723,Donegal,Naran,Republic of Ireland
Ramor Theatre,http://www.ramortheatre.com,+353(0)498547074,-7.080113,53.833822,Cavan,Virginia,Republic of Ireland
Cavan and Leitrim Railway,http://cavanandleitrim.com,+353(0)719638599,-7.91651,53.859514,Leitrim,Dromod,Republic of Ireland
Kenmare Heritage Centre,,+353(0)646641233,-9.584642,51.880807,Kerry,Kenmare,Republic of Ireland
River Bandon (Game),http://www.bandonriver.com/,+353(0)2641222,-8.9637,51.906862,Cork,Bandon,Republic of Ireland
O'Shea's Cycles,http://homepage.tinet.ie/~osheacycles/index.htm,+353(0)669761919,-9.783935,52.106282,Kerry,Killorglin,Republic of Ireland
Casey's Skellig Boat Trips,http://www.skelligislands.com,+353(0)669472437,-10.3693339931225,51.8837274514345,Kerry,Portmagee,Republic of Ireland
Historical  Walking Tour,http://www.northwestwalkingguides.com,+353(0)749735967,-8.10988002391191,54.6546325077439,Donegal,Donegal Town,Republic of Ireland
Mount Congreve Estate Gardens,http://www.mountcongreve.com,+353(0)51384115,-7.21234533919596,52.2376875611901,Waterford,Kilmeaden,Republic of Ireland
St. Fin Barre's Cathedral,http://www.cathedral.cork.anglican.org,+353(0)214963387,-8.480785,51.89432,Cork,Cork City,Republic of Ireland
Kilcohan Park Greyhound Stadium,http://www.kilcohanparkgreyhoundstadium.ie,+353(0)61448080,-7.112149,52.242676,Waterford,Waterford City,Republic of Ireland
Kilbeggan Racecourse,http://www.kilbegganraces.com,+353(0)579332176,-7.49175891528318,53.385405056296,Westmeath,Kilbeggan,Republic of Ireland
Curragh Racecourse,http://www.curragh.ie,+353(0)45441205,-6.84418596826174,53.1638667417878,Kildare,The Curragh,Republic of Ireland
Navan Racecourse,http://www.navanracecourse.ie,+353(0)469021350,-6.67439179364009,53.68428181667,Meath,Navan,Republic of Ireland
St Connell's Museum & Heritage Centre,,+353(0)749551766,-8.281898,54.795302,Donegal,Glenties,Republic of Ireland
Skibbereen Heritage Centre,http://www.skibbheritage.com,+353(0)2840900,-9.2719133386231,51.550868575794,Cork,Skibbereen,Republic of Ireland
The River Barrow Navigation,http://www.irelandsancienteast.com/see-do/boating/boat/the-river-barrow-navigation,+353(0)599131554,-6.93749692606593,52.8365868746328,Carlow,Carlow Town,Republic of Ireland
Isaac Butt Heritage Centre,,+353(0)749133108,-7.932909,54.837603,Donegal,Ballybofey,Republic of Ireland
Dunfanaghy Fishery,,+353(0)749136232,-7.969977,55.18327,Donegal,Dunfanaghy,Republic of Ireland
Mulroy Clay Pigeon Club,,+353(0)749153230,-7.69106,55.068268,Donegal,Milford,Republic of Ireland
Loughcrew Historic Gardens,http://www.loughcrew.com,+353(0)498541356,-7.14367188227845,53.7341959797683,Meath,Oldcastle,Republic of Ireland
Liss Ard Gardens,http://www.lissardestate.com,+353(0)2840000,-9.25326172011807,51.5375554740858,Cork,Skibbereen ,Republic of Ireland
Lough Derg Place of Pilgrimage,http://www.loughderg.org,+353(0)719861518,-7.87127813389588,54.6089850115486,Donegal,Pettigo,Republic of Ireland
Doe Castle,http://www.heritageireland.ie/en/north-west/doecastle/,+353(0)872937383,-7.86408,55.135002,Donegal,Creeslough,Republic of Ireland
Gap of Dunloe Tours,http://www.gapofdunloetours.com,+353(0)646630200,-9.63583859789491,52.0245778032227,Kerry,Killarney,Republic of Ireland
Hertz Rent a Car,http://www.hertz.ie,+353(0)539152500Wexford,-6.456079,52.344114,Wexford,Wexford Town,Republic of Ireland
Fota House and Gardens,http://www.irishheritagetrust.ie.,+353(0)214815543,-8.303769,51.893912,Cork,Carrigtwohill,Republic of Ireland
Galvin's Coaches Dunmanway Ltd.,,+353(0)238845125,-9.108832,51.72388,Cork,Dunmanway,Republic of Ireland
West Cork Music Ltd.,http://www.westcorkmusic.ie,+353(0)2752788,-9.448848,51.680447,Cork,Bantry,Republic of Ireland
St Brigid’s Cathedral & Round Tower,http://www.kildare.ie/community/easysites/kildareheritage/?page_id=2790,+353(0)45530672,-6.91131296560672,53.157917,Kildare,Kildare,Republic of Ireland
Lullymore Heritage  & Discovery Park,http://www.lullymoreheritagepark.com,+353(0)45870238,-6.94972847094732,53.270712901366,Kildare,Rathangan,Republic of Ireland
Ballyloughan Castle,http://carlowtourism.com/ballyloughan-castle-2/,,-6.898006,52.672974,Carlow,Bagenalstown,Republic of Ireland
Dingle Guided Walks & Tours,http://www.dingleactivities.com,+353(0)669155143,-10.355146855714,52.1744811961628,Kerry,Gallarus,Republic of Ireland
Waterpoint,http://www.waterpoint.ie,+353(0)9636999,-9.089272,54.217386,Sligo,Enniscrone,Republic of Ireland
Dunleckney Manor,,+353(0)599721932,-6.93846925396724,52.7136089924901,Carlow,Bagenalstown,Republic of Ireland
Carlow Courthouse,,,-6.93121208465572,52.8382111381112,Carlow,Dublin Street,Republic of Ireland
Carlow Cathedral,http://www.carlowcathedral.ie,+353(0)599164087,-6.927924,52.837005,Carlow,Carlow Town,Republic of Ireland
Liberty Tree,,+353(0)599130411,-6.929228,52.835025,Carlow,Carlow Town,Republic of Ireland
Croppies Grave,http://carlowtourism.com/carlow-town-walk/,+353(0)599131554,-6.93938,52.838941,Carlow,Chapel St,Republic of Ireland
Rathgall Stone Fort,,+353(0)599131554,-6.663278,52.802441,Carlow,Tullow,Republic of Ireland
Cloch an Phoill,,,-6.746674,52.770253,Carlow,Tullow,Republic of Ireland
Haroldstown Dolmen,http://carlowtourism.com/haroldstown-dolmen-2/,+353(0)599131554,-6.66423803439329,52.8444730408112,Carlow,Tullow,Republic of Ireland
Black Abbey,http://visitkilkenny.ie/black_abbey,,-7.257644,52.653965,Kilkenny,Kilkenny City,Republic of Ireland
Battle of the Boyne Visitor Centre,http://www.battleoftheboyne.ie,+353(0)419809950,-6.4233495152664,53.723382684164,Meath,Oldbridge,Republic of Ireland
Maynooth Castle,http://www.heritageireland.ie/en/midlands-eastcoast/maynoothcastle/,+353(0)16286744,-6.59396020485883,53.3808328065501,Kildare,Maynooth,Republic of Ireland
Duiske Abbey,http://www.barrowriver.ie/index.php/2013/01/duiske-abbey/,+353(0)599724238,-6.95487,52.541074,Kilkenny,Graiguenamanagh,Republic of Ireland
Kells Priory,http://visitkilkenny.ie/kells_priory,,-7.26647807282302,52.5380921626103,Kilkenny,Kells,Republic of Ireland
Rathbeggan Lakes Angling Centre,http://www.rathbegganlakes.com,+353(0)18240197,-6.506432,53.468993,Meath,Dunshaughlin,Republic of Ireland
Ballyscanlon Forest,http://www.coillteoutdoors.ie,,-7.20616368061303,52.1742547097023,Waterford,Tramore,Republic of Ireland
Gerry Sheerin Boat Trips,,+353(0)719166472,-8.47442684067016,54.419793004137,Sligo,Grange,Republic of Ireland
Sliabh Liag Boat Tours,http://www.sliabhleagueboattrips.com/,+353(0)876284688,-8.632111,54.623419,Donegal,Teelin,Republic of Ireland
Tuar Ard,,+353(0)906482042,-7.725291,53.396056,Westmeath,Moate,Republic of Ireland
Fota Arboretum & Gardens,http://www.heritageireland.ie/en/south-west/fotaarboretumandgardens/,+353(0)16458884,-8.30373683068842,51.8938834643977,Cork,Carrigtwohill,Republic of Ireland
Cappoquin House Gardens,http://www.cappoquinhouseandgardens.com,+353(0)5854290,-7.85078964332296,52.1496362402988,Waterford,Cappoquin,Republic of Ireland
Eagles Flying - Irish Raptor Research Centre,http://www.eaglesflying.com,+353(0)719189310,-8.57064011639408,54.1022872232983,Sligo,Ballymote,Republic of Ireland
Doorly Park,http://www.discoverireland.ie/Places-To-Go/Sligo,,-8.45691,54.2683,Sligo,Sligo Town,Republic of Ireland
Seafari Fun Eco-Nature & Seal Watching Cruises,http://www.seafariireland.com,+353(0)872508803,-9.588749,51.872542,Kerry,Kenmare,Republic of Ireland
Cape Clear Island & Fastnet Cruises (Schull),http://www.capeclearferries.com,System.Object[],-9.54457517974856,51.5248668622204,Cork,Schull,Republic of Ireland
Belvedere House Gardens & Park,http://www.belvedere-house.ie,+353(0)449338960,-7.369546,53.475943,Westmeath,Mullingar,Republic of Ireland
Mitchelstown Cave,http://www.mitchelstowncave.com,+353(0)527467246,-8.1045695865655,52.3039816471095,Tipperary,Cahir,Republic of Ireland
Thurles Racecourse,http://www.thurlesraces.ie,+353(0)50422253,-7.83566531213375,52.6888394994874,Tipperary,Thurles,Republic of Ireland
Knockpatrick Gardens,http://www.myinfo.ie/Knockpatrick-Gardens/,+353(0)6965256,-9.109989,52.591819,Limerick,Foynes,Republic of Ireland
Newtown Castle & Trail,http://www.newtowncastle.com,+353(0)657077200,-9.169792,53.103578,Clare,Ballyvaughan,Republic of Ireland
Boyce Gardens,http://www.boycesgardens.com,+353(0)6965302,-9.161576,52.599115,Limerick,Foynes,Republic of Ireland
Moher Hill Open Farm and Leisure Park,http://www.moherfarm.ie,+353(0)872258347,-9.39489381047467,52.936400675402,Clare,Liscannor,Republic of Ireland
Shannon Ferries,http://www.shannonferries.com,+353(0)659053124,-9.38034652790124,52.6170570859214,Clare,Killimer,Republic of Ireland
Dysert Castle,http://www.dysertcastle.com,+353(0)656837401,-9.062756,52.944898,Clare,Corofin,Republic of Ireland
Ballynacourty Gardens,,+353(0)61396409,-8.935327,52.643399,Limerick,Askeaton,Republic of Ireland
Foynes Flying Boat & Maritime Museum,http://www.flyingboatmuseum.com,+353(0)6965416,-9.109932,52.611343,Limerick,Foynes,Republic of Ireland
Desmond Hall,http://www.heritageireland.ie/en/shannon-region/desmondhall/,+353(0)6977408,-9.060708,52.450419,Limerick,Newcastle West,Republic of Ireland
Aillwee Cave & The Birds Of Prey Centre,http://www.aillweecave.ie,+353(0)657077036,-9.14570004113579,53.089563725277,Clare,Ballyvaughan,Republic of Ireland
Burren Hill Walks,http://homepage.eircom.net/~burrenhillwalks/,+353(0)657077168,-9.18093025947403,53.071246508789,Clare,Ballyvaughan,Republic of Ireland
Stonehall Visitor Farm,http://www.stonehallvisitorfarm.com,+353(0)61393940,-8.867763,52.607285,Limerick,Kilcornan,Republic of Ireland
Stephen Bennett's Studio Gallery,http://www.stephenbennett.net,+353(0)749541652,-8.437078,54.784994,Donegal,Ardara,Republic of Ireland
Caherconnell Fort & Sheepdog Demonstrations,http://www.burrenforts.ie,+353(0)657089999,-9.138822,53.041883,Clare,Carron,Republic of Ireland
"Brú na Bóinne Visitor Centre (Newgrange, Knowth and Dowth)",http://www.heritageireland.ie/en/midlands-eastcoast/brunaboinnevisitorcentre/,+353(0)419880300,-6.44644539968874,53.6946718693966,Meath,Donore,Republic of Ireland
Irish Caravan & Camping Council,http://www.camping-ireland.ie,,-8.25090745074965,52.2684764736967,Cork,Mitchelstown,Republic of Ireland
Ireland's Blue Book,http://irelandsbluebook.com,+353(0)16769914,-6.25129050799557,53.3358670289243,Dublin,Dublin City,Republic of Ireland
Lough Mask,,+353(0)91563118,-9.056331,53.277149,Mayo,Ballinrobe,Republic of Ireland
The Autograph Tree,http://www.coolepark.ie,+353(0)91631804,-8.837954,53.09256,Galway,Gort,Republic of Ireland
The Burren Centre,http://www.theburrencentre.ie,+353(0)657088030,-9.20919,52.989129,Clare,Kilfenora,Republic of Ireland
Craggaunowen - The Living Past Experience,http://www.shannonheritage.com,+353(0)61360788,-8.793719,52.81098,Clare,Quin,Republic of Ireland
King John's Castle,http://www.shannonheritage.com/,+353(0)61360788,-8.62553578902429,52.6697197227411,Limerick,Limerick City,Republic of Ireland
Copper Coast Mini Farm,https://www.facebook.com/CopperCoasMiniFarm/,+353(0)51396870,-7.21629170185325,52.1562493146071,Waterford,Fenor,Republic of Ireland
Salthill Garden,http://www.donegalgardens.com,+353(0)749735387,-8.21081499834418,54.6322529236293,Donegal,Mountcharles,Republic of Ireland
Tumble Jungle,http://www.tumblejungle.ie,+353(0)9676637,-9.1422,54.113583,Mayo,Ballina,Republic of Ireland
Donoghue's of Galway,http://www.donoghuesofgalway.com,+353(0)91776677,-8.84534,53.249705,Galway,Clarinbridge,Republic of Ireland
Independent Holiday Hostels of Ireland,http://www.hostels-ireland.com,+353(0)18364700,-6.235937,53.363275,Dublin,Dublin City,Republic of Ireland
River Shannon - Shannonbridge to Limerick City,,+353(0)61300238,-8.65114,52.655377,Limerick,Limerick City,Republic of Ireland
East Clare Lakeland and Rivers,,+353(0)656828366,-8.981829,52.844125,Clare,Scarriff,Republic of Ireland
Sea Fishing in the Shannon Estuary - Limerick City to Loop Head,,+353(0)61300238,-8.65114,52.655377,Limerick,Limerick City,Republic of Ireland
Birr Castle Gardens,http://www.birrcastle.com,+353(0)579120336,-7.91431210052497,53.0967022326292,Offaly,Birr,Republic of Ireland
Sea Life Aquarium Bray,http://www.sealife.ie,+353(0)12866939,-6.09814404662711,53.2034342302585,Wicklow,Bray,Republic of Ireland
Murphy Sea Cruise - Boat Trips to Skellig Rock,http://www.esatclear.ie/~skelligsrock,+353(0)669477156,-10.3693339931225,51.8837274514345,Kerry,Portmagee,Republic of Ireland
Burren Wild Guided Walking Tours,http://www.burrenwalks.com,+353(0)878779565,-9.04809604524664,53.1262530651468,Clare,Bellharbour,Republic of Ireland
Cahercommaun Stone Fort,http://www.burrenforts.ie,+353(0)657089999,-8.981829,52.844125,Clare,Ennis,Republic of Ireland
Carran Medieval Church,,+353(0)656828366,-8.77371953040125,52.741731163825,Clare,Ennis,Republic of Ireland
Gleninagh Castle,,+353(0)656828366,-9.205671,53.137658,Clare,Ennis,Republic of Ireland
Kilnaboy Medieval Church and Round Tower,,+353(0)656828366,-9.079651,52.972126,Clare,Ennis,Republic of Ireland
Leamaneh Castle,,+353(0)656828366,-9.140701,52.988036,Clare,Ennis,Republic of Ireland
Poulnabrone Portal Tomb,,,-8.981829,52.844125,Clare,Ennis,Republic of Ireland
Quin Abbey,,+353(0)656828366,-8.861554,52.820162,Clare,Ennis,Republic of Ireland
Temple Cronan Early Christian Church,,+353(0)656828366,-8.97916,52.832372,Clare,Ennis,Republic of Ireland
Saint Cronan's 10th Century Church Tuamgraney,,+353(0)61921351,-8.542793,52.897407,Clare,Tuamgraney,Republic of Ireland
Carrigogunnell Castle,,+353(0)61317522,-8.741821,52.646438,Limerick,Limerick City,Republic of Ireland
Glenquin Castle,,+353(0)61396255,-9.105541,52.384089,Limerick,Abbeyfeale,Republic of Ireland
"Kilmallock Churches, Castle and Town Gate",http://visitballyhoura.com,+353(0)61317522,-8.571376,52.398185,Limerick,Kilfinane,Republic of Ireland
"Roscrea Castle, Church, High Cross and Round Tower",http://www.heritageireland.ie,+353(0)50521850,-7.798101,52.954932,Tipperary,Roscrea,Republic of Ireland
Monaincha Church,,,-7.74762447607417,52.9458679547355,Tipperary,Roscrea,Republic of Ireland
University of Limerick Language Centre,http://www.ul.ie/languagecentre,+353(0)61202777,-8.573038,52.675637,Limerick,Limerick City,Republic of Ireland
Salmon Rivers in the Limerick Area,,+353(0)61300238,-8.65114,52.655377,Limerick,Castleconnell,Republic of Ireland
River Maigue System,,+353(0)61300238,-8.65114,52.655377,Limerick,Adare,Republic of Ireland
Ocean Quests Ltd.,http://www.skelligsrock.com,+353(0)669476214,-10.2886041490138,51.9257024897835,Kerry,Valentia Island,Republic of Ireland
Adare Heritage Centre,http://www.adareheritagecentre.ie,+353(0)61396666,-8.789833,52.56479,Limerick,Adare,Republic of Ireland
Vandeleur Walled Gardens,http://www.vandeleurwalledgarden.ie,+353(0)659051760,-9.472655,52.636197,Clare,Kilrush,Republic of Ireland
De Valera Museum and Bruree Heritage Centre,http://visitballyhoura.com/index.php/2015/07/22/de-valera-museum-bruree-heritage-centre/,+353(0)863949230,-8.662985,52.42453,Limerick,Bruree,Republic of Ireland
Lough Swilly Marina,http://www.loughswillymarina.com,+353(0)749360008,-7.479424,55.088683,Donegal,Inishowen,Republic of Ireland
Lough Gur,,+353(0)61300238,-8.65114,52.655377,Limerick,Limerick City,Republic of Ireland
Glor Irish Music Centre,http://www.glor.ie,+353(0)656845370,-8.977096,52.844572,Clare,Ennis,Republic of Ireland
Aran Islands Cruise and Angling,http://www.ocallaghanangling.com,+353(0)656821374,-9.39489381047467,52.936400675402,Clare,Liscannor,Republic of Ireland
The Burren Painting Centre,http://www.burrenpaintingcentre.com,+353(0)657074208,-9.287864,53.028935,Clare,Lisdoonvarna,Republic of Ireland
Glanleam Gardens,,+353(0)669476176,-10.318973061854,51.9217549592774,Kerry,Valentia Island,Republic of Ireland
The Edmund Rice International Heritage Centre,http://www.edmundrice.ie,+353(0)51874390,-7.11679823809811,52.2567423865168,Waterford,Waterford City,Republic of Ireland
Dromana Gate,http://www.dromanahouse.com/,+353(0)2496144,-7.86376252172181,52.1093223018503,Waterford,Cappoquin,Republic of Ireland
Cork Sea Safari,http://www.safari.ie,+353(0)868208565,-8.46571,51.8984,Cork,Cork City,Republic of Ireland
Teach Bán Nua Artist Gallery,http://www.teachban-artgallery.com,+353(0)877549760,-8.49455608465575,54.3258111087998,Sligo,Drumcliffe,Republic of Ireland
William Vincent Wallace Plaza,http://waterfordvikingtriangle.com/attractions/william-vincent-wallace-plaza/.htm,,-6.996444,52.271495,Waterford,Waterford City,Republic of Ireland
Ballitore Library & Quaker Museum,http://www.kildare.ie/library,+353(0)598623344,-6.81517067361073,53.0098208499115,Kildare,Ballitore,Republic of Ireland
Blue Pool Ferry,http://www.bluepoolferry.com,+353(0)2763333,-9.549772,51.750023,Cork,Glengarriff,Republic of Ireland
Aran Islands - Inishmaan - Inis Meáin,,,-9.58965917016294,53.0846945641393,Galway,Aran Islands,Republic of Ireland
Aran Islands - Inisheer  - Inis Oírr,http://www.inisoirr-island.com,,-9.52907266782936,53.0571620331286,Galway,Oileain Arann  (Aran Islands),Republic of Ireland
Morriscastle,http://www.fishingireland.net,,-6.24171532624211,52.5131864717807,Wexford,Killmuckridge,Republic of Ireland
Inishmurray Island Tours,http://www.sligoheritage.com,+353(0)876674522-Joe,-8.459966,54.465381,Sligo,Mullaghmore,Republic of Ireland
Monkey Business Ltd.,,+353(0)91580956,-9.100402,53.271284,Galway,Galway City,Republic of Ireland
Atlantic Language Galway,http://www.atlanticlanguage.com,+353(0)91566053,-9.046042,53.27404,Galway,Galway City,Republic of Ireland
Fintown Railway,http://www.antraen.com,+353(0)749546280,-8.12005171962914,54.8676920762651,Donegal,Fintown,Republic of Ireland
Limerick Racecourse,http://www.limerickraces.ie,+353(0)61320000,-8.69581,52.590366,Limerick,Patrickswell,Republic of Ireland
University Arena,http://www.universityarena.com,+353(0)61213555,-8.56497,52.673654,Limerick,Castletroy,Republic of Ireland
Mount Melleray Abbey,http://www.mountmellerayabbey.org,+353(0)5854404,-7.85685,52.187325,Waterford,Cappoquin,Republic of Ireland
S O'C Guiding Service,,+353(0)646631654,-9.5758911746099,52.075301672118,Kerry,Aghadoe,Republic of Ireland
The Main Guard,http://www.heritageireland.ie/en/south-east/themainguard/,+353(0)526127484,-7.701398,52.352945,Tipperary,Clonmel,Republic of Ireland
Kerry Geopark,,+353(0)877934663,-9.897747,51.837759,Kerry,Sneem,Republic of Ireland
Walking Town Trail of Sligo,,+353(0)719161201,-8.477043,54.268771,Sligo,Sligo Town,Republic of Ireland
St. Peter’s Cork,http://www.stpeterscork.ie/,+353(0)214278187,-8.47856511058807,51.8996786473387,Cork,Cork City,Republic of Ireland
Dolly's Cottage,,+353(0)719168079,-8.584131,54.27063,Sligo,Strandhill,Republic of Ireland
Sligo Regional Sports Centre,,+353(0)719160539,-8.45504970373531,54.2657136098846,Sligo,Sligo Town,Republic of Ireland
An Oige Irish Youth Hostel Association,http://www.anoige.ie,+353(0)18304555,-6.268348,53.355939,Dublin,Dublin City,Republic of Ireland
Donadea Forest Park,http://www.coillteoutdoors.ie/sites_and_trails/recreation_site_information/?rec_site=5&activity=&no_cache=1,+353(0)578678503,-6.74186487298584,53.3466910321598,Kildare,Donadea,Republic of Ireland
Mermaid Arts Centre,http://www.mermaidartscentre.ie,+353(0)12724030,-6.109113,53.201544,Wicklow,Bray,Republic of Ireland
Boherquill Ramblers Walking Club,http://www.boherquillramblers.ie/,+353(0)436685116,-7.46117094897044,53.7044129573178,Westmeath,Boherquill,Republic of Ireland
IrishWaterColours - Anne Osborne,http://www.irishwatercolours.com,+353(0)719168576,-8.59976269444268,54.2721966367732,Sligo,Strandhill,Republic of Ireland
The Dunamaise Arts Centre,http://www.dunamaise.ie,+353(0)578663355,-7.299943,53.034423,Laois,Portlaoise,Republic of Ireland
Cork Opera House Theatre,http://www.corkoperahouse.ie,+353(0)214270022,-8.472909,51.900251,Cork,Cork City,Republic of Ireland
Irish Harp Centre & Music School,http://www.irishharpcentre.com,+353(0)61372777,-8.506071,52.711377,Limerick,Castleconnell,Republic of Ireland
Gortavoher,http://www.coillteoutdoors.ie/index.php?id=171&rec_site=141,+353(0)61337322,-8.1591147412626,52.4741884483681,Tipperary,Glen of Aherlow,Republic of Ireland
Ballyrafton Wood,http://www.coillteoutdoors.ie,,-7.22985378107382,52.7216886568351,Kilkenny,Ballyfoyle,Republic of Ireland
Coille an Fhaltaigh Millennium Forest,http://www.coillteoutdoors.ie,,-7.42571842335429,52.620348765256,Kilkenny,Kilmanagh,Republic of Ireland
Wicklow Day Tour - Coach Tours of Ireland,https://wicklowmountainstour.ie/,+353(0)15311711,-6.2605686,53.3507863,Wicklow,Wicklow Town,Republic of Ireland
Bernard Kavanagh Coaches,http://www.bkavcoaches.com/,+353(0)568831189,-7.586953,52.719087,Kilkenny,Urlingford,Republic of Ireland
Suirway Bus and Coach Service,http://suirway.com/,+353(0)51382209,-6.981281,52.238676,Waterford,Waterford City,Republic of Ireland
Island Discovery - Inishbofin Ferry,http://www.inishbofinislanddiscovery.com,+353(0)9545819,-10.1938753949712,53.6213274215726,Galway,Inishbofin Island,Republic of Ireland
Kerry Fiddles,http://www.kerryfiddles.com,+353(0)863253701,-9.50358310409311,51.8737999261745,Kerry,Kenmare,Republic of Ireland
Sligo Gaiety 12 Screen Multiplex,http://www.gaietycinema.com,+353(0)719174002,-8.477911,54.27267,Sligo,Sligo Town,Republic of Ireland
Healy Tours,http://www.healybus.com,+353(0)91770066,-9.02211,53.303529,Galway,Galway City,Republic of Ireland
Molly Gallivan's Cottage and Traditional Farm,http://www.mollygallivans.com,+353(0)646641455,-9.56427,51.809822,Kerry,Kenmare,Republic of Ireland
Ireland West Airport - Knock,http://www.irelandwestairport.com,+353(0)949368100,-8.810976,53.913704,Mayo,Charlestown,Republic of Ireland
Upper Caragh Fishery,http://www.safiex.com,+353(0)872213835,-9.862879,52.007713,Kerry,Glencar,Republic of Ireland
Tralee Aqua Dome,http://www.aquadome.ie,+353(0)667128899,-9.709561,52.263495,Kerry,Tralee,Republic of Ireland
Newgrange Bike Hire,,+353(0)860695771,-6.459185,53.698267,Meath,Donore,Republic of Ireland
Cork Butter Museum,http://www.corkbutter.museum,+353(0)214300600,-8.476826,51.902765,Cork,Shandon,Republic of Ireland
Brigit's Garden (Gairdín Bhríde),http://www.brigitsgarden.ie,+353(0)91550905,-9.21067364223813,53.386663158486,Galway,Oughterard,Republic of Ireland
Skellig Boat Trips,,+353(0)669476120,-10.2907974109638,51.925093524084,Kerry,Knightstown,Republic of Ireland
J O'Callaghan & Sons,http://www.jocgroup.com,+353(0)646631095,-9.515217,52.099617,Kerry,Killarney,Republic of Ireland
The Copper Coast UNESCO Global  Geopark,http://www.coppercoastgeopark.com,+353(0)51292828,-7.36513846627042,52.1425048764255,Waterford,Bunmahon,Republic of Ireland
Valentia Island Ferries,,+353(0)669476141,-10.2907974109638,51.925093524084,Kerry,Knightstown,Republic of Ireland
Joe Haughey Travel,http://www.sliabhliagtours.ie/,+353(0)749739145,-8.63938,54.629854,Donegal,Teelin,Republic of Ireland
Skibbereen Sports Centre Ltd.,http://www.skibbereensportscentre.com,+353(0)2822624,-9.260908,51.553491,Cork,Skibbereen,Republic of Ireland
Burren Monuments,http://www.burrenbeo.com,+353(0)656828366,-8.981829,52.844125,Clare,Ennis,Republic of Ireland
Galtee Walking Club,http://www.galteewalkingclub.ie,+353(0)6257239,-8.1591147412626,52.4741884483681,Tipperary,Glen Of Aherlow,Republic of Ireland
Lisselan Gardens,http://www.lisselan.com,+353(0)238833249,-8.846878,51.654831,Cork,Clonakilty,Republic of Ireland
Arena 7 Leisure Complex,http://www.arena7.ie,+353(0)749128853,-7.706477,54.956663,Donegal,Letterkenny,Republic of Ireland
Cairn Visitor Centre,http://www.thecairncentre.com,+353(0)749381104,-6.997205,55.204015,Donegal,Inishowen,Republic of Ireland
Famine Warhouse 1848,http://www.heritageireland.ie/en/south-east/faminewarhouse1848/,+353(0)879089972,-7.803715,52.680787,Tipperary,Ballingarry,Republic of Ireland
"North West, North and West Tours",,+353(0)719851692,-8.22947662361036,54.526206073115,Donegal,Ballyshannon,Republic of Ireland
Dunbrody Country House Cookery School,http://www.dunbrodyhouse.com,+353(0)51389600,-6.955199,52.28238,Wexford,Arthurstown,Republic of Ireland
Newtownbarry House and Gardens,http://www.ihh.ie/houses/63/Newtownbarry-House/index.cfm,+353(0)539377073,-6.64727117329403,52.658656,Wexford,Bunclody,Republic of Ireland
Aqua Golf,http://www.aquadome.ie,+353(0)667128899,-9.709561,52.263495,Kerry,Tralee,Republic of Ireland
Ardfert Cathedral,http://www.heritageireland.ie/en/shannon-region/ardfertcathedral/,+353(0)667134711,-9.781663,52.328601,Kerry,Ardfert,Republic of Ireland
Seanchaí – Kerry Literary & Cultural Centre,http://www.kerrywritersmuseum.com,+353(0)6822212,-9.48646,52.444614,Kerry,Listowel,Republic of Ireland
Garden of Europe,http://www.listowel.ie,+353(0)6821004,-9.4849706983206,52.4489043890039,Kerry,Listowel,Republic of Ireland
Carrigafoyle Castle,,+353(0)6843304,-9.494329,52.570218,Kerry,Ballylongford,Republic of Ireland
Lislaughtin Franciscan Friary,,+353(0)667121288,-9.47861,52.547334,Kerry,Ballylongford,Republic of Ireland
Listowel Castle,http://www.heritageireland.ie/en/shannon-region/listowelcastle/,+353(0)667121288,-9.487108,52.443964,Kerry,Listowel,Republic of Ireland
St. John's Theatre & Arts Centre,http://www.stjohnstheatrelistowel.com,+353(0)6822566,-9.486143,52.444971,Kerry,Listowel,Republic of Ireland
Kerry County Museum,http://www.kerrymuseum.ie,+353(0)667127777,-9.706157,52.26677,Kerry,Tralee,Republic of Ireland
Tinteán Theatre,http://www.tintean.ie/,+353(0)6828003,-9.666332,52.511587,Kerry,Ballybunion,Republic of Ireland
The Lartigue Monorailway,http://www.lartiguemonorail.com,+353(0)6824393,-9.490492,52.44965,Kerry,Listowel,Republic of Ireland
Dun Aonghas Tours,http://www.dunaonghastours.com,+353(0)9961329,-9.757413,53.129874,Galway,Inishmore - Árainn,Republic of Ireland
"University Concert Hall, Limerick",http://www.uch.ie,+353(0)61331549,-8.56228539860626,52.6733181786434,Limerick,Limerick City,Republic of Ireland
Friars Gate Theatre & Arts,http://www.friarsgate.ie,+353(0)6398727,-8.576376,52.40068,Limerick,Kilmallock,Republic of Ireland
Garter Lane Arts Theatre,http://www.garterlane.ie,+353(0)51855038,-7.114905,52.261684,Waterford,Waterford City,Republic of Ireland
Busy Bees - Childrens Activity Centre,,+353(0)91788516,-8.930215,53.277651,Galway,Oranmore,Republic of Ireland
"Leisure World, Galway",http://www.leisureworld.ie,+353(0)91562820,-9.048353,53.279547,Galway,Headford Road,Republic of Ireland
Galway Gothic Tour,http://www.privatetours.ie/,+353(0)877782887,-9.05346204548618,53.2752225233093,Galway,Galway City,Republic of Ireland
River Feale System - salmon & brown trout,,+353(0)61300238,-9.301865364685,52.3844780818107,Limerick,Abbeyfeale,Republic of Ireland
The Flough,,+353(0)749384024,-7.26892528262374,55.0679371782254,Donegal,Muff,Republic of Ireland
Rosguill Charter Hire,,+353(0)749155080,-7.852487,55.224421,Donegal,Downings,Republic of Ireland
Clare Heritage Centre & Genealogical Centre,http://www.clareroots.com,+353(0)656837955,-9.062756,52.944898,Clare,Corofin,Republic of Ireland
Doolin2Aran Ferries - Aran Islands,http://www.doolin2aranferries.com,+353(0)657075949,-9.40471591534424,53.0151520447494,Clare,Doolin,Republic of Ireland
Craiceann Inis Oírr International Bodhrán Summer School,http://www.craiceann.com,+353(0)9975067,-9.52158430767959,53.0641933964831,Galway,Inisheer -Inis Oírr,Republic of Ireland
Killarney Watercoach Cruises Ltd.,http://www.killarneydaytour.com,+353(0)646635593,-9.50949582445741,52.0590518085418,Kerry,Killarney,Republic of Ireland
O'Donoghue's Boating,http://www.killarneydaytour.com,+353(0)646631068,-9.50949582445741,52.0591309678393,Kerry,Killarney,Republic of Ireland
Day Tours by Coach with Keating Coaches,http://www.limericktours.com,+353(0)868116258,-8.86302723068896,52.4742570239969,Limerick,Ballingarry,Republic of Ireland
Fiddlers Retreat,http://www.fiddlersretreat.com,+353(0)868099661,-7.82409798264878,52.7568935173768,Tipperary,Templemore,Republic of Ireland
Castletown House,http://www.heritageireland.ie/en/midlands-eastcoast/castletownhouseandparklands/,+353(0)16288252,-6.5305866613769,53.3491660444311,Kildare,Celbridge,Republic of Ireland
Kinsale Ghost Tours,http://kinsaleperformanceevents.com/hentertainment/ghost-tout/,+353(0)879480910,-8.525223,51.706063,Cork,Kinsale,Republic of Ireland
Kinsale Pottery & Arts Centre,http://www.kinsaleceramics.com,+353(0)214777758,-8.551092,51.712101,Cork,Kinsale,Republic of Ireland
Brú Ború Cultural Centre,http://bruboru.ie/,+353(0)6261122,-7.888442,52.521179,Tipperary,Cashel,Republic of Ireland
Rock of Cashel - St. Patrick's Rock,http://www.heritageireland.ie/en/south-east/rockofcashel/,+353(0)6261437,-7.89040605026241,52.5201167005062,Tipperary,Cashel,Republic of Ireland
Crawford Art Gallery,http://www.crawfordartgallery.ie,+353(0)214805042,-8.473182,51.899917,Cork,Cork City,Republic of Ireland
Catherine Hammond Gallery,http://www.hammondgallery.com,+353(0)2851690,-9.26870234179682,51.549224204583,Cork,Skibbereen,Republic of Ireland
Mod Tours,,+353(0)879582258,-8.43553170910649,51.9077258826439,Cork,Cork City,Republic of Ireland
Dundalk Stadium,http://www.dundalkstadium.com,+353(0)429334438,-6.3847003598023,54.0179181113347,Louth,Dundalk,Republic of Ireland
Leahy's Open Farm,http://www.leahysopenfarm.ie,+353(0)838488142,-8.07292312907521,52.0089981054766,Cork,Midleton,Republic of Ireland
The North Mayo Sculpture Trail,,+353(0)9845107,-9.16317710100111,54.1290890768703,Mayo,Ballina,Republic of Ireland
Avis Rent A Car,http://www.avis.ie,+353(0)214281111,-8.472305,51.900071,Cork,Cork City,Republic of Ireland
Féile Ceol na Locha,http://www.ceolnalocha.com,+353(0)949544229,-9.37973887646056,53.656867033,Mayo,Tourmakeady,Republic of Ireland
Holistic Therapy Centre Ltd,http://www.eileenclair.com,+353(0)659052239,-9.518664,52.650586,Clare,Kilrush,Republic of Ireland
Limerick City Gallery of Art,http://gallery.limerick.ie/,+353(0)61310633,-8.628424,52.658869,Limerick,Limerick,Republic of Ireland
Roscrea Castle and Damer House,http://www.heritageireland.ie/en/midlands-eastcoast/roscreaheritagecentre-roscreacastleanddamer/,+353(0)50521850,-7.79763774470518,52.954951793945,Tipperary,Roscrea,Republic of Ireland
Mike Hynan Coach Tours,http://www.mikehynancoaches.ie,+353(0)61381700,-8.287981,52.632863,Limerick,Cappamore,Republic of Ireland
Griffins Garden Centre,http://www.griffinsgardencentre.ie,+353(0)217334286,-8.724551,51.912194,Cork,Dripsey,Republic of Ireland
Toraigh na dTonn,http://www.hoteltory.com,+353(0)749135920,-8.22651543033464,55.2656905158791,Donegal,Tory Island - Toraigh,Republic of Ireland
Dingle Music School,http://www.dinglemusicschool.com,+353(0)863190438,-10.2688,52.1405,Kerry,Dingle,Republic of Ireland
Dunmore East Blue Flag Beach 2019,http://www.blueflagireland.org,+353(0)51875823,-6.99754577635939,52.1509098469443,Waterford,Dunmore,Republic of Ireland
Brittany Ferries,http://www.brittanyferries.com,+353(0)214277801,-8.474305,51.896447,Cork,Cork City,Republic of Ireland
Dunguaire Castle,http://www.shannonheritage.com,+353(0)61360788,-8.926252,53.142189,Galway,Kinvara,Republic of Ireland
Clonea Strand Blue Flag Beach 2019,http://www.blueflagireland.org/,,-7.54284568664343,52.0961520196763,Waterford,Clonea,Republic of Ireland
Galway Cathedral,,+353(0)91563577,-9.057572,53.275262,Galway,Galway City,Republic of Ireland
Clonfert Cathedral,,,-8.058572,53.240673,Galway,Clonfert,Republic of Ireland
Na Seacht Teampaill,,+353(0)9961263,-9.68646743809061,53.1281796452453,Galway,"Inis Mór,  Aran Islands,",Republic of Ireland
Rosserk Abbey,,+353(0)9670848,-9.14576093911739,54.1629158983542,Mayo,Ballina,Republic of Ireland
Ballaghaderreen Cathedral,http://www.achonrydiocese.org,+353(0)949860011,-8.577979,53.903133,Roscommon,Ballaghaderreen,Republic of Ireland
Roscommon Abbey,http://www.megalithicireland.com/Roscommon%20Friary.html,+353(0)906626342,-8.19177506018832,53.6248727660413,Roscommon,Roscommon Town,Republic of Ireland
Stephen Diggin's Studio Gallery,http://www.stephendigginart.com,+353(0)749361925,-7.453438,55.134197,Donegal,Buncrana,Republic of Ireland
Aircoach,http://www.aircoach.ie,+353(0)18447118,-6.243069,53.428486,Dublin,Dublin Airport,Republic of Ireland
Ardgillan Demesne,http://www.ardgillancastle.ie/,+353(0)18492212,-6.15902969162262,53.5871631380011,Dublin,Balbriggan,Republic of Ireland
Kaplan International College Dublin,http://www.kaplaninternational.com,+44(0)2087273532,-6.268863,53.344933,Dublin,Dublin City,Republic of Ireland
Centre of English Studies,http://www.ces-schools.com,+353(0)16714233,-6.263502,53.344068,Dublin,Dublin City,Republic of Ireland
Civic Theatre,http://www.civictheatre.ie,+353(0)14627477,-6.372209,53.288411,Dublin,Tallaght,Republic of Ireland
Contemporary Music Centre,http://www.cmc.ie,+353(0)16731922,-6.269532,53.344173,Dublin,Dublin City,Republic of Ireland
Dan Dooley Car Rentals,http://www.dooleycarrentals.com,+353(0)6253103,-8.41154,52.43773,Limerick,Knocklong,Republic of Ireland
Dublin Mini Coaches & Chauffeur Drive,http://www.dublinminicoaches.com/,+353(0)1861780049,-6.348238,53.330439,Dublin,Dublin City,Republic of Ireland
Dualway Coaches,http://www.dualwaycoaches.com,+353(0)14580054,-6.491218,53.277615,Dublin,Rathcoole,Republic of Ireland
Dublin Garden Group,http://www.dublingardens.com,+353(0)12832934,-6.189413,53.298931,Dublin,Blackrock,Republic of Ireland
Dublin Literary Pub Crawl,http://www.dublinpubcrawl.com,+353(0)16705602,-6.260692,53.343832,Dublin,Dublin City,Republic of Ireland
Dublin Zoo,http://www.dublinzoo.ie,+353(0)14748900,-6.304145,53.355024,Dublin,Dublin City,Republic of Ireland
Dublinia,http://www.dublinia.ie,+353(0)16794611,-6.27200028587913,53.3431227439183,Dublin,Dublin City,Republic of Ireland
Eirebus Ltd,http://www.eirebus.ie,+353(0)18242626,-6.359778,53.414194,Dublin,Dublin City,Republic of Ireland
Emerald Cultural Institute,http://www.eci.ie,+353(0)14973361,-6.259107,53.313638,Dublin,Dublin City,Republic of Ireland
Enterprise Rent-A-Car,http://www.enterprise.ie,+353(0)14290200,-6.347867,53.324655,Dublin,Dublin City,Republic of Ireland
Gate Theatre,http://www.gate-theatre.ie,+353(0)18744045,-6.262278,53.35304,Dublin,Dublin City,Republic of Ireland
Hidden Ireland,http://www.hiddenireland.com,+353(0)9866650,-6.30047646499663,53.3888369747585,Dublin,Dublin City,Republic of Ireland
International House Dublin,http://www.ihdublin.com,+353(0)16355850,-6.265528,53.334732,Dublin,Dublin City,Republic of Ireland
The Horner School Of English,http://www.hornerschool.ie,+353(0)16622911,-6.249128,53.336485,Dublin,Dublin City,Republic of Ireland
The Gaiety Theatre,http://www.gaietytheatre.ie,+353(0)16771717,-6.26163,53.340387,Dublin,Dublin City,Republic of Ireland
Irish Education Partners,http://www.iepartners.ie,+353(0)18550019,-6.253597,53.349898,Dublin,Dublin City,Republic of Ireland
Irish Jewish Museum,http://www.jewishmuseum.ie/,+353(0)14531797,-6.269414,53.330748,Dublin,South Circular Road,Republic of Ireland
Irish Welcome Tours,http://www.irishwelcometours.com,+353(0)12933000,-6.215983,53.275545,Dublin,Sandyford,Republic of Ireland
Irish College of English,http://www.iceireland.com,+353(0)18453744,-6.153319,53.450155,Dublin,Malahide,Republic of Ireland
The James Joyce Centre,http://www.jamesjoyce.ie,+353(0)18788547,-6.259988,53.354157,Dublin,Dublin City,Republic of Ireland
Croke Park Stadium,http://crokepark.ie/gaamuseum,+353(0)18192300,-6.252428,53.361245,Dublin,Dublin City,Republic of Ireland
Kilmainham Gaol,http://kilmainhamgaolmuseum.ie/,+353(0)14535984,-6.30978111045078,53.3418898820564,Dublin,Dublin City,Republic of Ireland
Language Learning International,http://www.lli.ie,+353(0)12143314,-6.131484,53.28968,Dublin,Blackrock,Republic of Ireland
Leopardstown Racecourse,http://leopardstown.com,+353(0)12890500,-6.194613,53.265658,Dublin,Leopardstown,Republic of Ireland
The Linguaviva Centre,http://www.linguaviva.com,+353(0)16789384,-6.254029,53.33297,Dublin,Dublin City,Republic of Ireland
Malahide Marina Village Ltd,,+353(0)18454129,-6.15427,53.4558,Dublin,Malahide,Republic of Ireland
Dollar Thrifty Car Rental,http://www.thrifty.ie,+353(0)16687566,-6.23401799450687,53.3374226297642,Dublin,Dublin City,Republic of Ireland
Marsh's Library,http://www.marshlibrary.ie,+353(0)14543511,-6.270589,53.339197,Dublin,Dublin City,Republic of Ireland
Abbey Theatre,http://www.abbeytheatre.ie,+353(0)18787222,-6.257107,53.34854,Dublin,Dublin City,Republic of Ireland
National Concert Hall,http://www.nch.ie,+353(0)14170000,-6.259218,53.334605,Dublin,Dublin City,Republic of Ireland
National Gallery of Ireland,http://www.nationalgallery.ie,+353(0)16325133,-6.252491,53.340892,Dublin,Dublin City,Republic of Ireland
National Photographic Archive,http://www.nli.ie,+353(0)16030200,-6.26537863558201,53.345183373571,Dublin,Temple Bar,Republic of Ireland
National Print Museum,http://www.nationalprintmuseum.ie,+353(0)16603770,-6.235386,53.335167,Dublin,Haddington Road,Republic of Ireland
Olympia Theatre,http://www.olympia.ie,+353(0)16793323,-6.26608,53.344313,Dublin,Dublin City,Republic of Ireland
Black Church Print Studio,http://www.print.ie,+353(0)16773629,-6.264056,53.345635,Dublin,Dublin City,Republic of Ireland
Pavilion Theatre,http://www.paviliontheatre.ie,+353(0)12312929,-6.133533,53.293902,Dublin,Dún Laoghaire,Republic of Ireland
Royal Hibernian Academy,http://www.rhagallery.ie,+353(0)16612558,-6.25470687235258,53.3370711953088,Dublin,15 Ely Place,Republic of Ireland
St Patrick's Cathedral,http://www.stpatrickscathedral.ie,+353(0)14539472,-6.27157,53.339543,Dublin,Dublin City,Republic of Ireland
Stena Line,http://www.stenaline.co.uk,+353(0)19075555,-6.1974,53.349617,Dublin,Dublin City,Republic of Ireland
The Sugar Club,http://www.thesugarclub.com,+353(0)16787188,-6.256638,53.335498,Dublin,Dublin City,Republic of Ireland
Temple Bar Cultural Trust and Temple Bar Cultural Information Centre,http://www.templebar.ie,+353(0)16772255,-6.265743,53.345328,Dublin,Dublin City,Republic of Ireland
Temple Bar Gallery and Studios,http://www.templebargallery.com,+353(0)16710073,-6.263577,53.345631,Dublin,Dublin City,Republic of Ireland
Ambassador Theatre,,+353(0)0818333773,-6.261968,53.352709,Dublin,Dublin City,Republic of Ireland
Visual Instinct,http://www.visualinstinct.ie/,+353(0)872051222,-7.29633140592955,53.0418620637218,Laois,Portlaoise,Republic of Ireland
Peacock Theatre,http://www.abbeytheatre.ie,+353(0)18787222,-6.257107,53.34854,Dublin,Dublin City,Republic of Ireland
The Spire,,,-6.260294,53.350921,Dublin,Dublin City,Republic of Ireland
Garden of Remembrance,http://www.heritageireland.ie/en/dublin/gardenofremembrance/,+353(0)18213021,-6.26412713890079,53.3539359628311,Dublin,Dublin City,Republic of Ireland
General Post Office,http://www.anpost.ie/AnPost/History+and+Heritage/History/GPO+Dublin/,+353(0)17057000,-6.260654,53.349333,Dublin,Dublin City,Republic of Ireland
Ha'penny Bridge,,,-6.263081,53.346307,Dublin,Dublin City Centre,Republic of Ireland
Merrion Square,,+353(0)16612369,-6.25002,53.3388,Dublin,Dublin City,Republic of Ireland
Mansion House,http://www.lordmayordublin.ie,+353(0)12226200,-6.257726,53.340317,Dublin,Dublin City,Republic of Ireland
Leinster House,http://www.oireachtas.ie/parliament/visitsevents/,+353(0)16183271,-6.254252,53.340122,Dublin,Dublin City,Republic of Ireland
Iveagh Gardens,http://www.heritageireland.ie/en/dublin/theiveaghgardens/,+353(0)14757816,-6.26077042291262,53.3355316078956,Dublin,Dublin City,Republic of Ireland
St Ann's Church,http://www.stannschurch.ie,+353(0)16767727,-6.257889,53.341089,Dublin,Dublin City,Republic of Ireland
St. Audoen's Church,http://www.heritageireland.ie/en/dublin/staudoenschurch/,+353(0)16770088,-6.273575,53.343796,Dublin,Dublin City,Republic of Ireland
War Memorial Gardens,http://www.heritageireland.ie/en/dublin/warmemorialgardens/,+353(0)14757816,-6.292519,53.334912,Dublin,Islandbridge,Republic of Ireland
St. Mary's Pro Cathedral,http://www.procathedral.ie,+353(0)18745441,-6.258885,53.351138,Dublin,Dublin City,Republic of Ireland
Christ Church Cathedral,http://christchurchcathedral.ie/,+353(0)16778099,-6.271123,53.343459,Dublin,Dublin City,Republic of Ireland
Dublin Writers Museum,http://www.writersmuseum.com,+353(0)18722077,-6.263985,53.354366,Dublin,Dublin City,Republic of Ireland
Croke Park Stadium Tour and GAA Museum,http://crokepark.ie/gaa-museum-tours/stadium-tours,+353(0)18192323,-6.251852,53.360566,Dublin,Dublin City,Republic of Ireland
National Botanic Gardens,http://www.botanicgardens.ie/,+353(0)18040300,-6.27185819049077,53.3726543450805,Dublin,Dublin City,Republic of Ireland
James Joyce Museum,,+353(0)12809265,-6.113658,53.288634,Dublin,Sandycove,Republic of Ireland
Pearse Museum and St. Enda's Park,http://www.heritageireland.ie/en/dublin/pearsemuseum-stendaspark/,+353(0)14934208,-6.28158782209015,53.2829377382802,Dublin,Rathfarnham,Republic of Ireland
Phoenix Park Visitor Centre and Ashtown Castle,http://www.phoenixpark.ie,+353(0)16770095,-6.331008,53.366091,Dublin,Dublin City,Republic of Ireland
Rathfarnham Castle,http://www.rathfarnhamcastle.ie,+353(0)14939462,-6.283678,53.298067,Dublin,Rathfarnham,Republic of Ireland
Skerries Mills,http://www.skerriesmills.ie,+353(0)18495208,-6.110148,53.574331,Dublin,Fingal,Republic of Ireland
St Anne's Park and Rose Gardens,http://www.dublincity.ie/main-menu-services-recreation-culture-dublin-city-parks-visit-park/st-annes-park,+353(0)18338898,-6.17541,53.3693,Dublin,Clontarf,Republic of Ireland
Blessington Street Basin (Dublin's Secret Garden),http://www.dublincity.ie/main-menu-services-recreation-culture-dublin-city-parks-visit-park/blessington-street-basin,+353(0)16612369,-6.26969159790041,53.3572226151365,Dublin,Dublin City,Republic of Ireland
Phoenix Park,http://www.phoenixpark.ie,+353(0)18213021,-6.31541837843335,53.3557378487288,Dublin,Dublin City,Republic of Ireland
Marlay Park,http://www.dlrcoco.ie/parks/marlay_information.html,+353(0)14937372,-6.27623737578847,53.2767650453436,Dublin,Rathfarnham,Republic of Ireland
Abbey Ireland & UK,http://www.abbey.ie,+353(0)16486100,-6.27682906018833,53.3446096824301,Dublin,Dublin City,Republic of Ireland
Buff Day Spa,http://www.thebuffdayspa.com,+353(0)16774624,-6.261288,53.340223,Dublin,Dublin City,Republic of Ireland
The Helix,http://www.thehelix.ie,+353(0)17007138,-6.259217,53.386498,Dublin,Glasnevin,Republic of Ireland
AquaZone at  the National Aquatic Centre,http://www.nac.ie,+353(0)16464300,-6.370179,53.397004,Dublin,Blanchardstown,Republic of Ireland
Áras an Uachtaráin,http://www.president.ie/en,+353(0)16770095,-6.311431,53.361618,Dublin,Dublin City,Republic of Ireland
Alpha College of English,http://www.alphacollege.com,+353(0)18747024,-6.26182401719665,53.3552083170314,Dublin,Dublin City,Republic of Ireland
Farmleigh House,http://www.farmleigh.ie,+353(0)18155900,-6.359981,53.365152,Dublin,Castleknock,Republic of Ireland
Government Buildings,http://www.taoiseach.gov.ie,+353(0)16194249,-6.254129,53.339374,Dublin,Dublin City,Republic of Ireland
St. Stephen's Green,http://www.heritageireland.ie/en/dublin/ststephensgreen/,+353(0)14757816,-6.26034649604798,53.3395626419277,Dublin,Dublin City Centre,Republic of Ireland
EF International Language Schools,http://www.ef-italia.it/pg/corsi-di-lingua/inglese/irlanda/,+353(0)16114220,-6.252871,53.334932,Dublin,Dublin City,Republic of Ireland
Famine Memorial,,,-6.250194,53.347933,Dublin,Dublin City,Republic of Ireland
The Greenhouse,http://www.ecounesco.ie/,+353(0)16625491,-6.262036,53.343615,Dublin,Dublin City Centre,Republic of Ireland
Whelan's,http://www.whelanslive.com,+353(0)14780766,-6.265721,53.336617,Dublin,Dublin City,Republic of Ireland
The Village,http://www.thevillagevenue.com,+353(0)14758555,-6.26578737074912,53.3366677763588,Dublin,Dublin City,Republic of Ireland
National Basketball Arena,http://www.arena.ie,+353(0)868388972,-6.334469,53.292364,Dublin,Tallaght,Republic of Ireland
National Library of Ireland,http://www.nli.ie,+353(0)16030259,-6.254541,53.34162,Dublin,Dublin City,Republic of Ireland
Gáirdín an Ghorta,https://www.facebook.com/thefaminegarden/,+353(0)868394349,-7.26119265653996,52.4695989259217,Kilkenny,Newmarket,Republic of Ireland
Tarrea Queen Tours,http://www.tarreaqueentours.ie,+353(0)91635465,-8.941622,53.167821,Galway,Ardrahan,Republic of Ireland
Trident Holiday Homes,http://www.tridentholidayhomes.ie,+353(0)12018400,-6.062389,53.099787,Wicklow,Kilcoole,Republic of Ireland
Dream Ireland Holiday Rentals,http://www.dreamireland.com,+353(0)646641170,-9.587674,51.884753,Kerry,Kenmare,Republic of Ireland
Balor Arts Centre,http://www.balorartscentre.com,+353(0)749131840,-7.779107,54.800265,Donegal,Ballybofey,Republic of Ireland
Slieve League Cultural Centre,,+353(0)749739077,-8.641766,54.635811,Donegal,Carrick,Republic of Ireland
Select Hotels of Ireland,,,-8.629009,52.661385,Limerick,Limerick City,Republic of Ireland
Atlantic Adventure Centre,http://www.atlanticadventurecentre.com,+353(0)9864806,-9.689667,53.780048,Mayo,Lecanvey,Republic of Ireland
Leisureplex Cork,http://www.leisureplex.ie,+353(0)214505155,-8.469075,51.901661,Cork,Cork City,Republic of Ireland
Leisureplex Stillorgan,http://www.leisureplex.ie,+353(0)12881656,-6.197433,53.289399,Dublin,Dublin City,Republic of Ireland
Shackleton Outdoor Education Centre,http://www.colaistedhulaigh.ie,+353(0)18481400,-6.213115,53.396804,Dublin,Coolock,Republic of Ireland
Ballynahinch Castle Hotel Fly Fishing Tuition,http://www.ballynahinch-castle.com,+353(0)9531006,-9.862353,53.460213,Galway,Ballynahinch,Republic of Ireland
Jim Robinson Angling Centre,,+353(0)61453808,-8.636336,52.669096,Limerick,Limerick City,Republic of Ireland
Lakeland & Midsummer Lakehouse,http://www.midsummerlakehouse.com,+353(0)91552121,-9.283975,53.431936,Galway,Oughterard,Republic of Ireland
Bray Bowl,http://www.braybowl.ie,+353(0)12864455,-6.102014,53.20483,Wicklow,Bray,Republic of Ireland
Leisureplex Blanchardstown,http://www.leisureplex.ie,+353(0)18223030,-6.392785,53.391405,Dublin,Blanchardstown,Republic of Ireland
Roll n Bowl,http://www.bowlingireland.com,+353(0)578670005,-7.31833552247621,53.0266445366653,Laois,Portlaoise,Republic of Ireland
Funworld,,+353(0)61325088,-8.658167,52.670543,Limerick,Limerick City,Republic of Ireland
Airfield Estate,http://www.airfield.ie,+353(0)19696666,-6.23517081747434,53.2879548011902,Dublin,Dundrum,Republic of Ireland
Barleycove Beach Awarded Blue Flag 2019,http://www.blueflagireland.org/,+353(0)2821489,-9.77561229959794,51.4693878602381,Cork,Goleen,Republic of Ireland
Casey's Bogwood Sculptures,http://www.bogoak.ie/,+353(0)433325297,-7.97308195922846,53.5678097081587,Longford,Newtowncashel,Republic of Ireland
Brandon Creek,,+353(0)669151188,-10.1623414644901,52.2687580193612,Kerry,Brandon,Republic of Ireland
Dunmore Head,,+353(0)669151188,-10.4771606261275,52.1106143553946,Kerry,Dunquin,Republic of Ireland
Shrule Pet Farm,https://www.facebook.com/shrule.petfarm,+353(0)539427277,-6.245731,52.555725,Wexford,Gorey,Republic of Ireland
The Raven,,,-6.36870054492192,52.3634281886385,Wexford,Curracloe,Republic of Ireland
The Trinity Tree Dingle,,,-10.271003,52.141565,Kerry,Dingle,Republic of Ireland
Cratloe Woods,http://www.coillteoutdoors.ie/,+353(0)61337322,-8.76565,52.7016,Clare,Cratloe,Republic of Ireland
Farran Forest Park,http://www.coillte.ie,+353(0)2642837,-8.9506,51.9046,Cork,Macroom,Republic of Ireland
Monicknew Woods,http://www.coillteoutdoors.ie/index.php?id=173&rec_site=97&trail=125,+353(0)578660831,-7.54228016502986,53.0708113344065,Laois,Mountrath,Republic of Ireland
Moore Abbey Wood,http://www.coillteoutdoors.ie/sites_and_trails/recreation_site_information/?rec_site=45&activity=22&no_cache=1,+353(0)578626307,-7.04986428544089,53.1343169709735,Kildare,Monasterevan,Republic of Ireland
Shelmalier Forth Mountain,,+353(0)539239400,-6.57304928597114,52.3166331143593,Wexford,Barntown,Republic of Ireland
Killarney National Park,http://www.killarneynationalpark.ie/,+353(0)646631440,-9.51624055412515,52.0529951832706,Kerry,Killarney,Republic of Ireland
Gleesons Cycles Bicyle Hire,,+353(0)659051127,-9.484387,52.638484,Clare,Kilrush,Republic of Ireland
Blackrock Park,http://www.dlrcoco.ie/parks/blackrock.html,+353(0)12047275,-6.19078,53.3066,Dublin,Blackrock,Republic of Ireland
Brickfield Park,http://dublincity.ie/main-menu-services-culture-dublin-city-parks-visit-park/brickfield-park,+353(0)12222222,-6.30568,53.3285,Dublin,Drimnagh,Republic of Ireland
Bushy Park,,+353(0)14900320,-6.2927679692444,53.3013195225231,Dublin,Terenure,Republic of Ireland
Eamonn Ceannt Park,http://www.sdcc.ie,+353(0)14540799,-6.289724,53.325658,Dublin,Crumlin,Republic of Ireland
Williams Rent A Bike Bicycle Hire,,+353(0)659056041,-9.648658,52.677382,Clare,Kilkee,Republic of Ireland
Fairview Park,,+353(0)18336262,-6.23555,53.3629,Dublin,Clontarf,Republic of Ireland
Fitzgerald Park,,+353(0)214270679,-8.4937,51.8959,Cork,Cork City,Republic of Ireland
Griffith Park,,+353(0)18373290,-6.26185471289885,53.370559946868,Dublin,Drumcondra,Republic of Ireland
Sean Walsh Memorial Park,http://www.sdublincoco.ie,+353(0)14149000,-6.36902961251576,53.2844335005817,Dublin,Tallaght,Republic of Ireland
Tolka Valley Park,,+353(0)18905629,-6.38419411584835,53.3949605198791,Dublin,Blanchardstown,Republic of Ireland
Bernard Fagan Horse Drawn Carriages,http://www.horsedrawncarriagesdublin.com/,+353(0)868748691,-6.27732856041867,53.3490382014864,Dublin,Dublin City,Republic of Ireland
Ballinamuck Visitor Centre,http://visitlongford.ie/listings/ballinamuck-battlefield-visitors-centre/,+353(0)879613312,-7.71731833995056,53.8652803241533,Longford,Ballinamuck,Republic of Ireland
Hennigan's Heritage Centre,http://www.museumsofmayo.com,+353(0)949252505,-8.987827,53.974484,Mayo,Swinford,Republic of Ireland
Kinlough Folk Museum,,+353(0)719166296,-8.28643964019772,54.4457246021214,Leitrim,Kinlough,Republic of Ireland
Knowth Passage Tombs,http://worldheritageireland.ie,+353(0)419880300,-6.491835,53.701971,Meath,Slane,Republic of Ireland
Lackagh Museum and Heritage Park,,+353(0)878153762,-8.891062,53.369544,Galway,Turloughmore,Republic of Ireland
Lár Na Pairce museum  - The Story of Gaelic Games,http://larnapairce.ie,+353(0)50422702,-7.812962,52.678189,Tipperary,Thurles,Republic of Ireland
The National 1798 Rebellion Centre,http://www.1798centre.ie,9237596(0)53-9237596,-6.569424,52.496723,Wexford,Enniscorthy,Republic of Ireland
Letterfrack Sea Safari Boat Tours,http://www.letterfrackwatertours.com/,+353(0)9543473,-9.972419,53.572838,Galway,Letterfrack,Republic of Ireland
Plunkett Heritage Centre - National Dairy Co-operative Museum.,https://www.facebook.com/media/set/?set=a.1216468969581.2032824.1164545977&l=b6ae0f6bfc,+353(0)6383433,-8.90684457574082,52.3393870382316,Limerick,Drumcollogher,Republic of Ireland
The Irish Pewtermill Centre,,+353(0)879090044,-6.80946763229371,52.9848887447945,Kildare,Timolin,Republic of Ireland
Tullyboy Farm,http://www.tullyboyfarm.com,+353(0)876325293,-8.239128,53.939425,Roscommon,Boyle,Republic of Ireland
Ballybunion Seaweed Baths,,+353(0)6827469,-9.674852,52.513636,Kerry,Ballybunion,Republic of Ireland
Clondalkin Sports And Leisure Centre,http://www.clondalkin.com,+353(0)14574858,-6.39904,53.321899,Dublin,Clondalkin,Republic of Ireland
Clonmel Swimming Pool,http://www.tipperarycoco.ie/swimming-pools/clonmel-pool,+353(0)526121972,-7.698713,52.354968,Tipperary,Clonmel,Republic of Ireland
Coral Leisure Wicklow,http://wicklow.coralleisure.ie/,+353(0)40466831/2,-6.052583,52.986151,Wicklow,Wicklow Town,Republic of Ireland
Grove Leisure Centre Swimming Pool,,+353(0)238841643,-8.73674,51.750091,Cork,Bandon,Republic of Ireland
Leeside Leisure Centre,,+353(0)214551444,-8.467765,51.901253,Cork,Cork City,Republic of Ireland
The Coast Club Leisure Centre,http://www.sinnotthotels.com,+353(0)91592108,-9.200456,53.248611,Galway,Spiddal,Republic of Ireland
Chrysalis Holistic Centre,http://www.chrysalis.ie,+353(0)45404713,-6.6345,53.001832,Wicklow,Donard,Republic of Ireland
Croagh Patrick Pilgrimage,http://www.croagh-patrick.com,+353(0)9864114,-9.65954314916996,53.7583720726369,Mayo,Westport,Republic of Ireland
Dzogchen Beara Retreat and Conference Centre,http://www.dzogchenbeara.org,+353(0)2773032,-9.979378,51.615376,Cork,Allihies,Republic of Ireland
Saint Brigids Well,,+353(0)449348650,-7.341489,53.525469,Westmeath,Mullingar,Republic of Ireland
The Abbey Of Mount Saint Joseph,http://www.msjroscrea.ie/,+353(0)50525600,-7.855698,52.963705,Tipperary,Roscrea,Republic of Ireland
Lady Ardilaun,http://www.corribcruises.com,+353(0)9246029,-9.28146159232782,53.5385281892982,Mayo,Cong,Republic of Ireland
Killarney Lake Tours,http://www.killarneylaketours.ie,+353(0)646632638,-9.52977710943531,52.0425384837728,Kerry,Killarney,Republic of Ireland
Leisureplex Coolock,http://www.leisureplex.ie,+353(0)18485722,-6.192142,53.391653,Dublin,Coolock,Republic of Ireland
Cahersiveen Marina,http://www.cahersiveenmarina.ie,+353(0)669472777,-10.231965,51.94796,Kerry,Cahersiveen,Republic of Ireland
Howth Yacht Club Marina,,+353(0)18322141,-6.06771,53.388706,Dublin,Howth,Republic of Ireland
The Lagoon Activity Centre,http://www.lagoonactivitycentre.ie/,+353(0)877462720,-9.02353275147541,51.5732439223598,Cork,Rosscarbery,Republic of Ireland
Lee Valley Rowing Club,,+353(0)217434044,-8.756212,51.889591,Cork,Farran,Republic of Ireland
Shannon Rowing Club,http://shannonrowingclub.com/,+353(0)61415150,-8.629335,52.665294,Limerick,Limerick City,Republic of Ireland
Salve Marine,,+353(0)214831145,-8.300954,51.804377,Cork,Crosshaven,Republic of Ireland
Carrig Waterski and Wakeboard Centre,,+353(0)860757180,-8.8774287660803,51.9016193759175,Cork,Macroom,Republic of Ireland
Lucy Erridge Craft Shop & Art Gallery,,+353(0)61396898,-8.789843,52.564786,Limerick,Adare,Republic of Ireland
Angela Woulfe Gallery,http://www.AngelaWoulfeGallery.com,+353(0)61310164,-8.628919,52.659095,Limerick,Limerick City,Republic of Ireland
Bourn Vincent Gallery,,+353(0)61333644,-8.57211,52.673611,Limerick,Limerick City,Republic of Ireland
Bridge Street Studios,http://www.bridgestreetstudios.com,+353(0)429351712,-6.402876,54.009386,Louth,Dundalk,Republic of Ireland
Brushwood Studios Art Gallery,http://www.brushwoodstudios.com,+353(0)646645108,-9.870088,51.82812,Kerry,Sneem,Republic of Ireland
The Butler Gallery - Kilkenny Castle,http://www.butlergallery.com,+353(0)567761106,-7.249375,52.650426,Kilkenny,Kilkenny City,Republic of Ireland
Cavanacor House Gallery,http://www.cavanacorgallery.ie,+353(0)749141143,-7.50147879925234,54.8289388456807,Donegal,Lifford,Republic of Ireland
Droichead Arts Centre,http://www.droichead.com/,+353(0)419833946,-6.353303,53.714428,Louth,Drogheda,Republic of Ireland
Framework Gallery,http://www.theframeworkgallery.com,+353(0)12805756,-6.130605,53.289795,Dublin,Dun Laoghaire,Republic of Ireland
Giles Norman Photography,http://www.gilesnorman.com,+353(0)214774373,-8.522058,51.704432,Cork,Kinsale,Republic of Ireland
Green Gallery,http://www.greengallery.ie,+353(0)851988441,-6.262002,53.339967,Dublin,Dublin City Centre,Republic of Ireland
Green On Red Gallery,http://www.greenonredgallery.com,+353(0)872454282,-6.23787097610477,53.3501660435503,Dublin,Dublin City Centre,Republic of Ireland
Greenlane Gallery,http://www.greenlanegallery.com,+353(0)669152018,-10.271004,52.139655,Kerry,Dingle,Republic of Ireland
Guinness Gallery,http://www.guinnessgallery.com,+353(0)12897955,-6.184356,53.266725,Dublin,Foxrock,Republic of Ireland
Pebbles,http://www.liveforspeed.net/pebbles,+353(0)2828165,-9.545515,51.526728,Cork,Schull,Republic of Ireland
Kilcock Art Gallery,http://www.kilcockartgallery.com,+353(0)16287619,-6.66810896197125,53.3998387777857,Kildare,Kilcock,Republic of Ireland
Kinsale Art Gallery,http://www.kinsale-art-gallery.ie,+353(0)214773622,-8.518576,51.701505,Cork,Kinsale,Republic of Ireland
Oriel Gallery,http://www.theoriel.com,+353(0)16763410,-6.251421,53.341239,Dublin,Dublin City Centre,Republic of Ireland
Origin Gallery,http://origingallery.wordpress.com/,+353(0)16629347,-6.24941688591388,53.336472076452,Dublin,Dublin City,Republic of Ireland
Original Print Gallery,http://www.originalprint.ie,+353(0)16773657,-6.264056,53.345635,Dublin,Dublin City Centre,Republic of Ireland
Project Arts Centre,http://www.projectartscentre.ie,+353(0)8819613/14,-6.266229,53.34502,Dublin,Dublin City,Republic of Ireland
The Old Market House,,+353(0)5848944,-7.617146,52.088898,Waterford,Dungarvan,Republic of Ireland
The Vangard Gallery,,+353(0)2641198,-8.96638,51.905777,Cork,Macroom,Republic of Ireland
Tigh Filí Gallery,http://www.tighfili.com,+353(0)214509274,-8.474283,51.901345,Cork,Cork City,Republic of Ireland
Trim Visitor Centre,http://www.discoverboynevalley.ie/plan-your-visit/tourist-information-centres/trim-tourist-office,+353(0)469437227,-6.790894,53.554621,Meath,Trim,Republic of Ireland
The Warren Gallery,http://www.warren-gallery.com,+353(0)2836146,-9.18129628941064,51.526824434455,Cork,Castletownshend,Republic of Ireland
Agricultural Heritage Display Centre,http://www.irishmuseums.org/museum/739,+353(0)12862423,-6.188203,53.166685,Wicklow,Enniskerry,Republic of Ireland
Ballard Organic Farm,http://www.ballardorganicfarm.ie,+353(0)872557679,-7.55607061021419,53.3536686592092,Westmeath,Kilbeggan,Republic of Ireland
Ballymore Historic Features,http://www.ballymorehistoricfeatures.com,+353(0)868246921,-6.374547,52.598346,Wexford,Camolin,Republic of Ireland
Caheroyan House and Farm,http://www.caheroyanhouseathenry.com,+353(0)91844858,-8.73894,53.3055,Galway,Athenry,Republic of Ireland
Drumkeerin Heritage Centre,,+353(0)719648118,-8.14795007756413,54.1706046727649,Leitrim,Drumkeerin,Republic of Ireland
Father Murphy Centre,,+353(0)539366898,-6.414411,52.552555,Wexford,Ferns,Republic of Ireland
Fethard Folk Farm and Transport Museum,http://www.tipperary.com/fethard-folk-farm-and-transport-museum,+353(0)5231516,-7.705323,52.468789,Tipperary,Fethard,Republic of Ireland
Rathbaun Farm,http://www.rathbaunfarm.com,+353(0)91635385,-8.770357,53.158844,Galway,Ardrahan,Republic of Ireland
Ballinskelligs Beach Blue Flag  and Green Coast Awards 2019,http://www.blueflag.org,+353(0)646631633,-10.2715711023522,51.8224140112925,Kerry,Ballinskelligs,Republic of Ireland
Ballybunion North Blue flag Beach 2019,,+353(0)667121288,-9.68107243784514,52.5050716659474,Kerry,Ballybunion,Republic of Ireland
Ballybunion South Blue Flag Beach 2019,http://www.blueflag.org,+353(0)667121288,-9.6849911116995,52.4908521737982,Kerry,Ballybunion,Republic of Ireland
Ballyheigue Blue Flag Beach 2019,http://www.blueflag.org,+353(0)667121288,-9.83332754479778,52.3747386808968,Kerry,Ballyheigue,Republic of Ireland
Banna Blue Flag Beach 2019,http://www.blueflag.org,+353(0)667121288,-9.83711544147966,52.3361326081383,Kerry,Ardfert,Republic of Ireland
Kilmurvey  Beach,http://www.antaisce.org,+353(0)14002202,-9.76479191516114,53.1276404125305,Galway,Aran Mor,Republic of Ireland
Claycastle  Beach,http://www.blueflag.org,+353(0)214255100,-7.85143905535373,51.9392141417473,Cork,Youghal,Republic of Ireland
Derrynane Blue Flag Beach 2019,http://www.blueflag.org,+353(0)646631633,-10.134490301451,51.7582980470933,Kerry,Caherdaniel,Republic of Ireland
"Dooega, Achill Island  Blue Flag Beach 2019",http://www.blueflagireland.org/,+353(0)14002202,-10.0205587597195,53.92482245534,Mayo,Achill Island,Republic of Ireland
Duncannon Beach,http://www.visitwexford.ie/locations/duncannon-beach,+353(0)539141743,-6.9315448906227,52.2199444242032,Wexford,Duncannon,Republic of Ireland
Elly Bay Blue Flag Beach 2019,http://www.blueflagireland.org/,+353(0)14002202,-10.0920643303222,54.1597942172637,Mayo,Belmullet (Béal an Mhuirthead),Republic of Ireland
Fenit Blue Flag Beach 2019,http://www.blueflagireland.org/,+353(0)667121288,-9.8595306147581,52.2797083924763,Kerry,Fenit,Republic of Ireland
Front Strand Beach,,+353(0)214255100,-7.851509,51.937915,Cork,Youghal,Republic of Ireland
Garrylucas Blue Flag Beach 2019,http://www.blueflagireland.org/,+353(0)214772234,-8.5697173014862,51.6418323425743,Cork,Kinsale,Republic of Ireland
Garryvoe Beach,,+353(0)214255100,-7.99973,51.865968,Cork,Shanagarry,Republic of Ireland
Inch Blue Flag Beach 2019,http://www.blueflagireland.org/,+353(0)669151188,-9.98372269619794,52.1379345346518,Kerry,Inch,Republic of Ireland
Inchydoney Blue Flag Beach 2019,http://www.blueflagireland.org/,+353(0)238833226,-8.86962759343174,51.5979052903105,Cork,Clonakilty,Republic of Ireland
